# timestamp_format: EPOCH_MILLIS
# Created at: Mon Mar  9 21:09:34 2026
 
received_at,protocol,source,msg_type,raw_data
1773086975651,NMEA0183,UDP:localhost:10110,GPALL,"$GPRMC,200935.64,A,4004.4362,N,01500.8354,E,2.2,74.2,090326,2.5,W*70<0D><0A>"
1773086975651,NMEA0183,UDP:localhost:10110,GPALL,"$GPGGA,200935.64,4004.4362,N,01500.8354,E,1,10,1.9,10.0,M,0.0,M,,*66<0D><0A>"
1773086975651,NMEA0183,UDP:localhost:10110,GPALL,"$GPGSA,A,3,15,30,12,21,28,23,9,4,8,27,,,1.7,1.3,1.8*03<0D><0A>"
1773086975651,NMEA0183,UDP:localhost:10110,GPALL,"$GPGSV,3,1,10,15,61,13,23,30,87,3,42,12,62,271,32,21,81,312,49*46<0D><0A>"
1773086975652,NMEA0183,UDP:localhost:10110,GPALL,"$GPGSV,3,2,10,28,61,111,40,23,90,315,31,9,51,241,21,4,83,177,21*78<0D><0A>"
1773086975652,NMEA0183,UDP:localhost:10110,GPALL,"$GPGSV,3,3,10,8,62,63,41,27,45,42,39*4C<0D><0A>"
1773086975652,NMEA0183,UDP:localhost:10110,GPALL,"$GPVTG,74.2,T,76.7,M,2.2,N,4.0,K,A*20<0D><0A>"
1773086975652,NMEA0183,UDP:localhost:10110,IIALL,"$IIHDG,74.2,,,2.5,W*06<0D><0A>"
1773086975652,NMEA0183,UDP:localhost:10110,VHALL,"$VHW,74.2,T,76.7,M,2.2,N,4.0,K*56<0D><0A>"
1773086975652,NMEA0183,UDP:localhost:10110,MTALL,"$MTW,18.1,C*1B<0D><0A>"
1773086975652,NMEA0183,UDP:localhost:10110,WIALL,"$WIMWV,172.0,R,11.4,N,A*13<0D><0A>"
1773086975652,NMEA0183,UDP:localhost:10110,WIALL,"$WIMWV,172.0,R,11.4,N,A*13<0D><0A>"
1773086976653,NMEA0183,UDP:localhost:10110,GPALL,"$GPRMC,200936.65,A,4004.4364,N,01500.8361,E,2.1,75.5,090326,2.5,W*77<0D><0A>"
1773086976654,NMEA0183,UDP:localhost:10110,GPALL,"$GPGGA,200936.65,4004.4364,N,01500.8361,E,1,06,1.8,10.0,M,0.0,M,,*62<0D><0A>"
1773086976654,NMEA0183,UDP:localhost:10110,GPALL,"$GPGSA,A,3,1,21,16,11,19,7,,,,,,,1.9,1.9,1.9*30<0D><0A>"
1773086976654,NMEA0183,UDP:localhost:10110,GPALL,"$GPGSV,2,1,6,1,20,248,47,21,21,169,42,16,66,122,37,11,59,211,25*71<0D><0A>"
1773086976654,NMEA0183,UDP:localhost:10110,GPALL,"$GPGSV,2,2,6,19,38,127,28,7,62,85,36*49<0D><0A>"
1773086976654,NMEA0183,UDP:localhost:10110,GPALL,"$GPVTG,75.5,T,78.0,M,2.1,N,3.8,K,A*23<0D><0A>"
1773086976654,NMEA0183,UDP:localhost:10110,IIALL,"$IIHDG,75.5,,,2.5,W*00<0D><0A>"
1773086976655,NMEA0183,UDP:localhost:10110,VHALL,"$VHW,75.5,T,78.0,M,2.1,N,3.8,K*55<0D><0A>"
1773086976655,NMEA0183,UDP:localhost:10110,MTALL,"$MTW,18.1,C*1B<0D><0A>"
1773086976655,NMEA0183,UDP:localhost:10110,WIALL,"$WIMWV,132.3,R,14.4,N,A*11<0D><0A>"
1773086976655,NMEA0183,UDP:localhost:10110,WIALL,"$WIMWV,132.3,R,14.4,N,A*11<0D><0A>"
1773086977654,NMEA0183,UDP:localhost:10110,GPALL,"$GPRMC,200937.65,A,4004.4365,N,01500.8369,E,2.0,74.2,090326,2.5,W*78<0D><0A>"
1773086977654,NMEA0183,UDP:localhost:10110,GPALL,"$GPGGA,200937.65,4004.4365,N,01500.8369,E,1,11,1.0,10.0,M,0.0,M,,*64<0D><0A>"
1773086977654,NMEA0183,UDP:localhost:10110,GPALL,"$GPGSA,A,3,27,13,10,18,8,15,17,2,19,32,3,,1.2,1.7,1.2*09<0D><0A>"
1773086977655,NMEA0183,UDP:localhost:10110,GPALL,"$GPGSV,3,1,11,27,35,238,32,13,4,61,28,10,42,222,47,18,4,59,41*79<0D><0A>"
1773086977655,NMEA0183,UDP:localhost:10110,GPALL,"$GPGSV,3,2,11,8,4,299,49,15,8,91,37,17,56,324,37,2,39,339,38*45<0D><0A>"
1773086977655,NMEA0183,UDP:localhost:10110,GPALL,"$GPGSV,3,3,11,19,13,290,20,32,87,86,27,3,31,261,31*49<0D><0A>"
1773086977655,NMEA0183,UDP:localhost:10110,GPALL,"$GPVTG,74.2,T,76.7,M,2.0,N,3.7,K,A*22<0D><0A>"
1773086977655,NMEA0183,UDP:localhost:10110,IIALL,"$IIHDG,74.2,,,2.5,W*06<0D><0A>"
1773086977655,NMEA0183,UDP:localhost:10110,VHALL,"$VHW,74.2,T,76.7,M,2.0,N,3.7,K*54<0D><0A>"
1773086977655,NMEA0183,UDP:localhost:10110,MTALL,"$MTW,18.1,C*1B<0D><0A>"
1773086977655,NMEA0183,UDP:localhost:10110,WIALL,"$WIMWV,167.7,R,10.5,N,A*10<0D><0A>"
1773086977655,NMEA0183,UDP:localhost:10110,WIALL,"$WIMWV,167.7,R,10.5,N,A*10<0D><0A>"
1773086978655,NMEA0183,UDP:localhost:10110,GPALL,"$GPRMC,200938.65,A,4004.4367,N,01500.8376,E,2.1,75.0,090326,2.5,W*79<0D><0A>"
1773086978655,NMEA0183,UDP:localhost:10110,GPALL,"$GPGGA,200938.65,4004.4367,N,01500.8376,E,1,08,0.8,10.0,M,0.0,M,,*66<0D><0A>"
1773086978655,NMEA0183,UDP:localhost:10110,GPALL,"$GPGSA,A,3,19,20,10,32,28,7,26,23,,,,,1.7,1.2,1.4*00<0D><0A>"
1773086978655,NMEA0183,UDP:localhost:10110,GPALL,"$GPGSV,2,1,8,19,41,347,26,20,1,210,29,10,27,55,29,32,53,5,47*4E<0D><0A>"
1773086978655,NMEA0183,UDP:localhost:10110,GPALL,"$GPGSV,2,2,8,28,37,0,27,7,33,119,38,26,11,149,25,23,65,278,30*7C<0D><0A>"
1773086978655,NMEA0183,UDP:localhost:10110,GPALL,"$GPVTG,75.0,T,77.5,M,2.1,N,3.9,K,A*2D<0D><0A>"
1773086978655,NMEA0183,UDP:localhost:10110,IIALL,"$IIHDG,75.0,,,2.5,W*05<0D><0A>"
1773086978655,NMEA0183,UDP:localhost:10110,VHALL,"$VHW,75.0,T,77.5,M,2.1,N,3.9,K*5B<0D><0A>"
1773086978655,NMEA0183,UDP:localhost:10110,MTALL,"$MTW,18.1,C*1B<0D><0A>"
1773086978656,NMEA0183,UDP:localhost:10110,WIALL,"$WIMWV,140.5,R,11.4,N,A*17<0D><0A>"
1773086978656,NMEA0183,UDP:localhost:10110,WIALL,"$WIMWV,140.5,R,11.4,N,A*17<0D><0A>"
1773086979656,NMEA0183,UDP:localhost:10110,GPALL,"$GPRMC,200939.65,A,4004.4368,N,01500.8383,E,2.0,74.9,090326,2.5,W*74<0D><0A>"
1773086979656,NMEA0183,UDP:localhost:10110,GPALL,"$GPGGA,200939.65,4004.4368,N,01500.8383,E,1,10,1.4,10.0,M,0.0,M,,*66<0D><0A>"
1773086979657,NMEA0183,UDP:localhost:10110,GPALL,"$GPGSA,A,3,3,22,20,13,4,27,21,8,10,30,,,1.9,1.4,1.2*07<0D><0A>"
1773086979657,NMEA0183,UDP:localhost:10110,GPALL,"$GPGSV,3,1,10,3,0,84,45,22,71,68,27,20,80,121,20,13,53,169,46*7B<0D><0A>"
1773086979657,NMEA0183,UDP:localhost:10110,GPALL,"$GPGSV,3,2,10,4,53,262,50,27,62,130,27,21,75,107,25,8,64,250,48*7F<0D><0A>"
1773086979657,NMEA0183,UDP:localhost:10110,GPALL,"$GPGSV,3,3,10,10,65,270,48,30,45,295,49*72<0D><0A>"
1773086979657,NMEA0183,UDP:localhost:10110,GPALL,"$GPVTG,74.9,T,77.4,M,2.0,N,3.8,K,A*24<0D><0A>"
1773086979657,NMEA0183,UDP:localhost:10110,IIALL,"$IIHDG,74.9,,,2.5,W*0D<0D><0A>"
1773086979657,NMEA0183,UDP:localhost:10110,VHALL,"$VHW,74.9,T,77.4,M,2.0,N,3.8,K*52<0D><0A>"
1773086979657,NMEA0183,UDP:localhost:10110,MTALL,"$MTW,18.1,C*1B<0D><0A>"
1773086979657,NMEA0183,UDP:localhost:10110,WIALL,"$WIMWV,161.3,R,11.8,N,A*1E<0D><0A>"
1773086979657,NMEA0183,UDP:localhost:10110,WIALL,"$WIMWV,161.3,R,11.8,N,A*1E<0D><0A>"
1773086980657,NMEA0183,UDP:localhost:10110,GPALL,"$GPRMC,200940.65,A,4004.4370,N,01500.8390,E,2.0,76.1,090326,2.5,W*7B<0D><0A>"
1773086980657,NMEA0183,UDP:localhost:10110,GPALL,"$GPGGA,200940.65,4004.4370,N,01500.8390,E,1,06,1.5,10.0,M,0.0,M,,*65<0D><0A>"
1773086980657,NMEA0183,UDP:localhost:10110,GPALL,"$GPGSA,A,3,18,15,31,4,1,21,,,,,,,1.4,0.8,2.4*30<0D><0A>"
1773086980657,NMEA0183,UDP:localhost:10110,GPALL,"$GPGSV,2,1,6,18,88,335,26,15,90,345,43,31,41,140,24,4,4,219,36*47<0D><0A>"
1773086980657,NMEA0183,UDP:localhost:10110,GPALL,"$GPGSV,2,2,6,1,82,274,35,21,39,57,45*49<0D><0A>"
1773086980658,NMEA0183,UDP:localhost:10110,GPALL,"$GPVTG,76.1,T,78.6,M,2.0,N,3.7,K,A*2C<0D><0A>"
1773086980658,NMEA0183,UDP:localhost:10110,IIALL,"$IIHDG,76.1,,,2.5,W*07<0D><0A>"
1773086980658,NMEA0183,UDP:localhost:10110,VHALL,"$VHW,76.1,T,78.6,M,2.0,N,3.7,K*5A<0D><0A>"
1773086980658,NMEA0183,UDP:localhost:10110,MTALL,"$MTW,18.1,C*1B<0D><0A>"
1773086980658,NMEA0183,UDP:localhost:10110,WIALL,"$WIMWV,155.3,R,14.1,N,A*15<0D><0A>"
1773086980658,NMEA0183,UDP:localhost:10110,WIALL,"$WIMWV,155.3,R,14.1,N,A*15<0D><0A>"
1773086981667,NMEA0183,UDP:localhost:10110,GPALL,"$GPRMC,200941.65,A,4004.4371,N,01500.8397,E,1.8,78.0,090326,2.5,W*78<0D><0A>"
1773086981667,NMEA0183,UDP:localhost:10110,GPALL,"$GPGGA,200941.65,4004.4371,N,01500.8397,E,1,09,1.0,10.0,M,0.0,M,,*68<0D><0A>"
1773086981667,NMEA0183,UDP:localhost:10110,GPALL,"$GPGSA,A,3,6,10,32,17,20,11,7,24,9,,,,2.1,1.4,1.7*08<0D><0A>"
1773086981667,NMEA0183,UDP:localhost:10110,GPALL,"$GPGSV,3,1,9,6,52,162,47,10,75,35,44,32,9,38,24,17,48,56,20*7E<0D><0A>"
1773086981667,NMEA0183,UDP:localhost:10110,GPALL,"$GPGSV,3,2,9,20,43,303,21,11,90,168,24,7,76,359,43,24,21,159,50*74<0D><0A>"
1773086981667,NMEA0183,UDP:localhost:10110,GPALL,"$GPGSV,3,3,9,9,76,106,25*48<0D><0A>"
1773086981667,NMEA0183,UDP:localhost:10110,GPALL,"$GPVTG,78.0,T,80.5,M,1.8,N,3.4,K,A*2F<0D><0A>"
1773086981667,NMEA0183,UDP:localhost:10110,IIALL,"$IIHDG,78.0,,,2.5,W*08<0D><0A>"
1773086981667,NMEA0183,UDP:localhost:10110,VHALL,"$VHW,78.0,T,80.5,M,1.8,N,3.4,K*59<0D><0A>"
1773086981667,NMEA0183,UDP:localhost:10110,MTALL,"$MTW,18.0,C*1A<0D><0A>"
1773086981667,NMEA0183,UDP:localhost:10110,WIALL,"$WIMWV,164.4,R,14.1,N,A*10<0D><0A>"
1773086981668,NMEA0183,UDP:localhost:10110,WIALL,"$WIMWV,164.4,R,14.1,N,A*10<0D><0A>"
1773086982660,NMEA0183,UDP:localhost:10110,GPALL,"$GPRMC,200942.65,A,4004.4372,N,01500.8404,E,1.9,79.7,090326,2.5,W*72<0D><0A>"
1773086982660,NMEA0183,UDP:localhost:10110,GPALL,"$GPGGA,200942.65,4004.4372,N,01500.8404,E,1,12,1.7,10.0,M,0.0,M,,*68<0D><0A>"
1773086982660,NMEA0183,UDP:localhost:10110,GPALL,"$GPGSA,A,3,10,28,13,15,24,26,2,11,14,6,31,7,1.9,1.2,1.0*03<0D><0A>"
1773086982660,NMEA0183,UDP:localhost:10110,GPALL,"$GPGSV,3,1,12,10,8,14,50,28,17,89,20,13,16,138,33,15,77,5,39*4A<0D><0A>"
1773086982660,NMEA0183,UDP:localhost:10110,GPALL,"$GPGSV,3,2,12,24,43,302,29,26,38,309,44,2,12,55,30,11,17,213,38*7A<0D><0A>"
1773086982660,NMEA0183,UDP:localhost:10110,GPALL,"$GPGSV,3,3,12,14,12,276,35,6,84,145,42,31,23,331,22,7,49,281,21*75<0D><0A>"
1773086982660,NMEA0183,UDP:localhost:10110,GPALL,"$GPVTG,79.7,T,82.2,M,1.9,N,3.4,K,A*2D<0D><0A>"
1773086982660,NMEA0183,UDP:localhost:10110,IIALL,"$IIHDG,79.7,,,2.5,W*0E<0D><0A>"
1773086982660,NMEA0183,UDP:localhost:10110,VHALL,"$VHW,79.7,T,82.2,M,1.9,N,3.4,K*5B<0D><0A>"
1773086982660,NMEA0183,UDP:localhost:10110,MTALL,"$MTW,18.1,C*1B<0D><0A>"
1773086982660,NMEA0183,UDP:localhost:10110,WIALL,"$WIMWV,176.6,R,10.8,N,A*1C<0D><0A>"
1773086982661,NMEA0183,UDP:localhost:10110,WIALL,"$WIMWV,176.6,R,10.8,N,A*1C<0D><0A>"
1773086983954,NMEA0183,UDP:localhost:10110,GPALL,"$GPRMC,200943.65,A,4004.4373,N,01500.8410,E,1.7,79.5,090326,2.5,W*7B<0D><0A>"
1773086983954,NMEA0183,UDP:localhost:10110,GPALL,"$GPGGA,200943.65,4004.4373,N,01500.8410,E,1,07,1.5,10.0,M,0.0,M,,*6B<0D><0A>"
1773086983954,NMEA0183,UDP:localhost:10110,GPALL,"$GPGSA,A,3,27,25,2,21,7,12,15,,,,,,1.6,0.9,1.1*3F<0D><0A>"
1773086983954,NMEA0183,UDP:localhost:10110,GPALL,"$GPGSV,2,1,7,27,32,352,40,25,68,273,38,2,82,52,25,21,75,118,35*4A<0D><0A>"
1773086983954,NMEA0183,UDP:localhost:10110,GPALL,"$GPGSV,2,2,7,7,42,78,44,12,80,264,44,15,76,167,35*78<0D><0A>"
1773086983954,NMEA0183,UDP:localhost:10110,GPALL,"$GPVTG,79.5,T,82.0,M,1.7,N,3.2,K,A*25<0D><0A>"
1773086983954,NMEA0183,UDP:localhost:10110,IIALL,"$IIHDG,79.5,,,2.5,W*0C<0D><0A>"
1773086983954,NMEA0183,UDP:localhost:10110,VHALL,"$VHW,79.5,T,82.0,M,1.7,N,3.2,K*53<0D><0A>"
1773086983954,NMEA0183,UDP:localhost:10110,MTALL,"$MTW,18.1,C*1B<0D><0A>"
1773086983954,NMEA0183,UDP:localhost:10110,WIALL,"$WIMWV,179.1,R,10.8,N,A*14<0D><0A>"
1773086983954,NMEA0183,UDP:localhost:10110,WIALL,"$WIMWV,179.1,R,10.8,N,A*14<0D><0A>"
1773086984664,NMEA0183,UDP:localhost:10110,GPALL,"$GPRMC,200944.65,A,4004.4374,N,01500.8416,E,1.7,79.3,090326,2.5,W*7B<0D><0A>"
1773086984664,NMEA0183,UDP:localhost:10110,GPALL,"$GPGGA,200944.65,4004.4374,N,01500.8416,E,1,10,1.8,10.0,M,0.0,M,,*66<0D><0A>"
1773086984664,NMEA0183,UDP:localhost:10110,GPALL,"$GPGSA,A,3,28,2,27,25,31,32,4,29,30,7,,,1.2,0.7,0.8*0C<0D><0A>"
1773086984664,NMEA0183,UDP:localhost:10110,GPALL,"$GPGSV,3,1,10,28,71,260,40,2,43,188,31,27,74,268,45,25,60,170,47*4F<0D><0A>"
1773086984664,NMEA0183,UDP:localhost:10110,GPALL,"$GPGSV,3,2,10,31,40,308,37,32,31,87,25,4,81,154,21,29,34,148,42*72<0D><0A>"
1773086984664,NMEA0183,UDP:localhost:10110,GPALL,"$GPGSV,3,3,10,30,35,7,27,7,88,235,20*4E<0D><0A>"
1773086984665,NMEA0183,UDP:localhost:10110,GPALL,"$GPVTG,79.3,T,81.8,M,1.7,N,3.1,K,A*2B<0D><0A>"
1773086984665,NMEA0183,UDP:localhost:10110,IIALL,"$IIHDG,79.3,,,2.5,W*0A<0D><0A>"
1773086984665,NMEA0183,UDP:localhost:10110,VHALL,"$VHW,79.3,T,81.8,M,1.7,N,3.1,K*5D<0D><0A>"
1773086984665,NMEA0183,UDP:localhost:10110,MTALL,"$MTW,18.0,C*1A<0D><0A>"
1773086984665,NMEA0183,UDP:localhost:10110,WIALL,"$WIMWV,154.1,R,8.3,N,A*29<0D><0A>"
1773086984665,NMEA0183,UDP:localhost:10110,WIALL,"$WIMWV,154.1,R,8.3,N,A*29<0D><0A>"
1773086985663,NMEA0183,UDP:localhost:10110,GPALL,"$GPRMC,200945.66,A,4004.4375,N,01500.8422,E,1.6,78.0,090326,2.5,W*7C<0D><0A>"
1773086985663,NMEA0183,UDP:localhost:10110,GPALL,"$GPGGA,200945.66,4004.4375,N,01500.8422,E,1,09,1.3,10.0,M,0.0,M,,*61<0D><0A>"
1773086985663,NMEA0183,UDP:localhost:10110,GPALL,"$GPGSA,A,3,26,2,13,32,24,25,27,29,17,,,,2.3,1.6,2.0*0A<0D><0A>"
1773086985663,NMEA0183,UDP:localhost:10110,GPALL,"$GPGSV,3,1,9,26,49,98,27,2,31,311,44,13,35,339,26,32,73,157,32*42<0D><0A>"
1773086985663,NMEA0183,UDP:localhost:10110,GPALL,"$GPGSV,3,2,9,24,69,289,47,25,73,135,26,27,53,103,32,29,75,93,21*78<0D><0A>"
1773086985663,NMEA0183,UDP:localhost:10110,GPALL,"$GPGSV,3,3,9,17,5,105,31*45<0D><0A>"
1773086985663,NMEA0183,UDP:localhost:10110,GPALL,"$GPVTG,78.0,T,80.5,M,1.6,N,3.0,K,A*25<0D><0A>"
1773086985663,NMEA0183,UDP:localhost:10110,IIALL,"$IIHDG,78.0,,,2.5,W*08<0D><0A>"
1773086985664,NMEA0183,UDP:localhost:10110,VHALL,"$VHW,78.0,T,80.5,M,1.6,N,3.0,K*53<0D><0A>"
1773086985664,NMEA0183,UDP:localhost:10110,MTALL,"$MTW,18.1,C*1B<0D><0A>"
1773086985664,NMEA0183,UDP:localhost:10110,WIALL,"$WIMWV,174.7,R,12.1,N,A*14<0D><0A>"
1773086985664,NMEA0183,UDP:localhost:10110,WIALL,"$WIMWV,174.7,R,12.1,N,A*14<0D><0A>"
1773086986664,NMEA0183,UDP:localhost:10110,GPALL,"$GPRMC,200946.66,A,4004.4376,N,01500.8428,E,1.5,76.9,090326,2.5,W*72<0D><0A>"
1773086986664,NMEA0183,UDP:localhost:10110,GPALL,"$GPGGA,200946.66,4004.4376,N,01500.8428,E,1,05,1.7,10.0,M,0.0,M,,*63<0D><0A>"
1773086986664,NMEA0183,UDP:localhost:10110,GPALL,"$GPGSA,A,3,4,13,20,3,17,,,,,,,,1.8,1.7,1.0*3D<0D><0A>"
1773086986664,NMEA0183,UDP:localhost:10110,GPALL,"$GPGSV,2,1,5,4,19,231,22,13,83,68,43,20,19,266,41,3,8,23,42*72<0D><0A>"
1773086986664,NMEA0183,UDP:localhost:10110,GPALL,"$GPGSV,2,2,5,17,43,342,36*7D<0D><0A>"
1773086986664,NMEA0183,UDP:localhost:10110,GPALL,"$GPVTG,76.9,T,79.4,M,1.5,N,2.8,K,A*2F<0D><0A>"
1773086986664,NMEA0183,UDP:localhost:10110,IIALL,"$IIHDG,76.9,,,2.5,W*0F<0D><0A>"
1773086986664,NMEA0183,UDP:localhost:10110,VHALL,"$VHW,76.9,T,79.4,M,1.5,N,2.8,K*59<0D><0A>"
1773086986664,NMEA0183,UDP:localhost:10110,MTALL,"$MTW,18.1,C*1B<0D><0A>"
1773086986664,NMEA0183,UDP:localhost:10110,WIALL,"$WIMWV,143.0,R,11.9,N,A*1C<0D><0A>"
1773086986664,NMEA0183,UDP:localhost:10110,WIALL,"$WIMWV,143.0,R,11.9,N,A*1C<0D><0A>"
1773086987678,NMEA0183,UDP:localhost:10110,GPALL,"$GPRMC,200947.66,A,4004.4377,N,01500.8433,E,1.6,76.4,090326,2.5,W*76<0D><0A>"
1773086987678,NMEA0183,UDP:localhost:10110,GPALL,"$GPGGA,200947.66,4004.4377,N,01500.8433,E,1,10,1.3,10.0,M,0.0,M,,*69<0D><0A>"
1773086987678,NMEA0183,UDP:localhost:10110,GPALL,"$GPGSA,A,3,27,7,3,20,25,9,19,23,16,29,,,2.1,0.8,1.6*06<0D><0A>"
1773086987678,NMEA0183,UDP:localhost:10110,GPALL,"$GPGSV,3,1,10,27,11,42,32,7,63,81,33,3,60,332,43,20,42,151,23*73<0D><0A>"
1773086987678,NMEA0183,UDP:localhost:10110,GPALL,"$GPGSV,3,2,10,25,29,152,40,9,43,100,43,19,14,85,47,23,75,76,35*48<0D><0A>"
1773086987678,NMEA0183,UDP:localhost:10110,GPALL,"$GPGSV,3,3,10,16,81,30,46,29,14,53,40*7B<0D><0A>"
1773086987678,NMEA0183,UDP:localhost:10110,GPALL,"$GPVTG,76.4,T,78.9,M,1.6,N,2.9,K,A*2C<0D><0A>"
1773086987678,NMEA0183,UDP:localhost:10110,IIALL,"$IIHDG,76.4,,,2.5,W*02<0D><0A>"
1773086987678,NMEA0183,UDP:localhost:10110,VHALL,"$VHW,76.4,T,78.9,M,1.6,N,2.9,K*5A<0D><0A>"
1773086987678,NMEA0183,UDP:localhost:10110,MTALL,"$MTW,18.1,C*1B<0D><0A>"
1773086987678,NMEA0183,UDP:localhost:10110,WIALL,"$WIMWV,163.5,R,11.7,N,A*15<0D><0A>"
1773086987678,NMEA0183,UDP:localhost:10110,WIALL,"$WIMWV,163.5,R,11.7,N,A*15<0D><0A>"
1773086988666,NMEA0183,UDP:localhost:10110,GPALL,"$GPRMC,200948.66,A,4004.4378,N,01500.8439,E,1.4,75.4,090326,2.5,W*7D<0D><0A>"
1773086988666,NMEA0183,UDP:localhost:10110,GPALL,"$GPGGA,200948.66,4004.4378,N,01500.8439,E,1,07,1.4,10.0,M,0.0,M,,*62<0D><0A>"
1773086988666,NMEA0183,UDP:localhost:10110,GPALL,"$GPGSA,A,3,3,9,31,7,27,5,6,,,,,,1.3,1.4,1.1*0C<0D><0A>"
1773086988666,NMEA0183,UDP:localhost:10110,GPALL,"$GPGSV,2,1,7,3,62,336,48,9,87,79,28,31,33,66,47,7,4,13,45*73<0D><0A>"
1773086988666,NMEA0183,UDP:localhost:10110,GPALL,"$GPGSV,2,2,7,27,57,113,22,5,10,250,40,6,10,71,39*46<0D><0A>"
1773086988666,NMEA0183,UDP:localhost:10110,GPALL,"$GPVTG,75.4,T,77.9,M,1.4,N,2.6,K,A*2D<0D><0A>"
1773086988666,NMEA0183,UDP:localhost:10110,IIALL,"$IIHDG,75.4,,,2.5,W*01<0D><0A>"
1773086988666,NMEA0183,UDP:localhost:10110,VHALL,"$VHW,75.4,T,77.9,M,1.4,N,2.6,K*5B<0D><0A>"
1773086988666,NMEA0183,UDP:localhost:10110,MTALL,"$MTW,18.1,C*1B<0D><0A>"
1773086988666,NMEA0183,UDP:localhost:10110,WIALL,"$WIMWV,181.2,R,12.6,N,A*1C<0D><0A>"
1773086988667,NMEA0183,UDP:localhost:10110,WIALL,"$WIMWV,181.2,R,12.6,N,A*1C<0D><0A>"
1773086989667,NMEA0183,UDP:localhost:10110,GPALL,"$GPRMC,200949.66,A,4004.4379,N,01500.8444,E,1.6,74.6,090326,2.5,W*76<0D><0A>"
1773086989667,NMEA0183,UDP:localhost:10110,GPALL,"$GPGGA,200949.66,4004.4379,N,01500.8444,E,1,12,1.4,10.0,M,0.0,M,,*6C<0D><0A>"
1773086989667,NMEA0183,UDP:localhost:10110,GPALL,"$GPGSA,A,3,31,13,3,18,29,27,21,7,16,23,19,24,2.3,1.5,2.3*3E<0D><0A>"
1773086989667,NMEA0183,UDP:localhost:10110,GPALL,"$GPGSV,3,1,12,31,41,216,23,13,28,229,34,3,3,119,40,18,43,165,49*71<0D><0A>"
1773086989667,NMEA0183,UDP:localhost:10110,GPALL,"$GPGSV,3,2,12,29,69,261,37,27,7,301,24,21,20,113,25,7,37,294,38*7A<0D><0A>"
1773086989667,NMEA0183,UDP:localhost:10110,GPALL,"$GPGSV,3,3,12,16,46,83,32,23,16,31,45,19,22,174,41,24,90,213,33*70<0D><0A>"
1773086989667,NMEA0183,UDP:localhost:10110,GPALL,"$GPVTG,74.6,T,77.1,M,1.6,N,3.0,K,A*23<0D><0A>"
1773086989667,NMEA0183,UDP:localhost:10110,IIALL,"$IIHDG,74.6,,,2.5,W*02<0D><0A>"
1773086989667,NMEA0183,UDP:localhost:10110,VHALL,"$VHW,74.6,T,77.1,M,1.6,N,3.0,K*55<0D><0A>"
1773086989667,NMEA0183,UDP:localhost:10110,MTALL,"$MTW,18.0,C*1A<0D><0A>"
1773086989667,NMEA0183,UDP:localhost:10110,WIALL,"$WIMWV,143.9,R,10.6,N,A*1B<0D><0A>"
1773086989667,NMEA0183,UDP:localhost:10110,WIALL,"$WIMWV,143.9,R,10.6,N,A*1B<0D><0A>"
1773086990666,NMEA0183,UDP:localhost:10110,GPALL,"$GPRMC,200950.66,A,4004.4380,N,01500.8450,E,1.6,73.6,090326,2.5,W*7A<0D><0A>"
1773086990666,NMEA0183,UDP:localhost:10110,GPALL,"$GPGGA,200950.66,4004.4380,N,01500.8450,E,1,11,1.5,10.0,M,0.0,M,,*65<0D><0A>"
1773086990666,NMEA0183,UDP:localhost:10110,GPALL,"$GPGSA,A,3,14,3,19,5,2,11,25,29,27,1,16,,2.3,1.4,1.4*35<0D><0A>"
1773086990666,NMEA0183,UDP:localhost:10110,GPALL,"$GPGSV,3,1,11,14,44,44,22,3,33,213,26,19,56,205,31,5,5,106,50*75<0D><0A>"
1773086990666,NMEA0183,UDP:localhost:10110,GPALL,"$GPGSV,3,2,11,2,25,28,39,11,72,167,24,25,50,112,28,29,65,34,30*48<0D><0A>"
1773086990666,NMEA0183,UDP:localhost:10110,GPALL,"$GPGSV,3,3,11,27,19,323,48,1,0,344,24,16,13,23,47*79<0D><0A>"
1773086990666,NMEA0183,UDP:localhost:10110,GPALL,"$GPVTG,73.6,T,76.1,M,1.6,N,2.9,K,A*2D<0D><0A>"
1773086990666,NMEA0183,UDP:localhost:10110,IIALL,"$IIHDG,73.6,,,2.5,W*05<0D><0A>"
1773086990667,NMEA0183,UDP:localhost:10110,VHALL,"$VHW,73.6,T,76.1,M,1.6,N,2.9,K*5B<0D><0A>"
1773086990667,NMEA0183,UDP:localhost:10110,MTALL,"$MTW,18.0,C*1A<0D><0A>"
1773086990667,NMEA0183,UDP:localhost:10110,WIALL,"$WIMWV,146.3,R,10.9,N,A*1B<0D><0A>"
1773086990667,NMEA0183,UDP:localhost:10110,WIALL,"$WIMWV,146.3,R,10.9,N,A*1B<0D><0A>"
1773086991669,NMEA0183,UDP:localhost:10110,GPALL,"$GPRMC,200951.66,A,4004.4381,N,01500.8455,E,1.6,71.6,090326,2.5,W*7D<0D><0A>"
1773086991669,NMEA0183,UDP:localhost:10110,GPALL,"$GPGGA,200951.66,4004.4381,N,01500.8455,E,1,09,1.7,10.0,M,0.0,M,,*6B<0D><0A>"
1773086991669,NMEA0183,UDP:localhost:10110,GPALL,"$GPGSA,A,3,15,29,24,26,3,31,21,20,23,,,,1.0,1.5,1.7*0D<0D><0A>"
1773086991669,NMEA0183,UDP:localhost:10110,GPALL,"$GPGSV,3,1,9,15,7,340,49,29,77,7,28,24,15,181,35,26,76,301,37*72<0D><0A>"
1773086991669,NMEA0183,UDP:localhost:10110,GPALL,"$GPGSV,3,2,9,3,73,107,20,31,90,264,38,21,23,68,48,20,29,356,50*4E<0D><0A>"
1773086991669,NMEA0183,UDP:localhost:10110,GPALL,"$GPGSV,3,3,9,23,37,352,45*70<0D><0A>"
1773086991669,NMEA0183,UDP:localhost:10110,GPALL,"$GPVTG,71.6,T,74.1,M,1.6,N,3.0,K,A*25<0D><0A>"
1773086991669,NMEA0183,UDP:localhost:10110,IIALL,"$IIHDG,71.6,,,2.5,W*07<0D><0A>"
1773086991669,NMEA0183,UDP:localhost:10110,VHALL,"$VHW,71.6,T,74.1,M,1.6,N,3.0,K*53<0D><0A>"
1773086991669,NMEA0183,UDP:localhost:10110,MTALL,"$MTW,18.0,C*1A<0D><0A>"
1773086991669,NMEA0183,UDP:localhost:10110,WIALL,"$WIMWV,156.1,R,12.7,N,A*14<0D><0A>"
1773086991669,NMEA0183,UDP:localhost:10110,WIALL,"$WIMWV,156.1,R,12.7,N,A*14<0D><0A>"
1773086992670,NMEA0183,UDP:localhost:10110,GPALL,"$GPRMC,200952.66,A,4004.4383,N,01500.8461,E,1.5,72.1,090326,2.5,W*7C<0D><0A>"
1773086992670,NMEA0183,UDP:localhost:10110,GPALL,"$GPGGA,200952.66,4004.4383,N,01500.8461,E,1,08,1.0,10.0,M,0.0,M,,*6B<0D><0A>"
1773086992670,NMEA0183,UDP:localhost:10110,GPALL,"$GPGSA,A,3,20,13,14,15,17,12,22,5,,,,,1.8,0.7,2.3*0C<0D><0A>"
1773086992670,NMEA0183,UDP:localhost:10110,GPALL,"$GPGSV,2,1,8,20,81,315,49,13,23,278,49,14,55,33,35,15,90,127,30*79<0D><0A>"
1773086992670,NMEA0183,UDP:localhost:10110,GPALL,"$GPGSV,2,2,8,17,68,284,48,12,45,269,29,22,53,20,32,5,83,238,25*4A<0D><0A>"
1773086992670,NMEA0183,UDP:localhost:10110,GPALL,"$GPVTG,72.1,T,74.6,M,1.5,N,2.8,K,A*2C<0D><0A>"
1773086992670,NMEA0183,UDP:localhost:10110,IIALL,"$IIHDG,72.1,,,2.5,W*03<0D><0A>"
1773086992670,NMEA0183,UDP:localhost:10110,VHALL,"$VHW,72.1,T,74.6,M,1.5,N,2.8,K*5A<0D><0A>"
1773086992670,NMEA0183,UDP:localhost:10110,MTALL,"$MTW,18.0,C*1A<0D><0A>"
1773086992670,NMEA0183,UDP:localhost:10110,WIALL,"$WIMWV,140.7,R,13.7,N,A*14<0D><0A>"
1773086992670,NMEA0183,UDP:localhost:10110,WIALL,"$WIMWV,140.7,R,13.7,N,A*14<0D><0A>"
1773086993671,NMEA0183,UDP:localhost:10110,GPALL,"$GPRMC,200953.66,A,4004.4384,N,01500.8466,E,1.6,72.8,090326,2.5,W*77<0D><0A>"
1773086993671,NMEA0183,UDP:localhost:10110,GPALL,"$GPGGA,200953.66,4004.4384,N,01500.8466,E,1,11,1.9,10.0,M,0.0,M,,*6B<0D><0A>"
1773086993671,NMEA0183,UDP:localhost:10110,GPALL,"$GPGSA,A,3,12,31,7,1,17,21,15,9,28,8,5,,1.8,1.6,2.1*07<0D><0A>"
1773086993671,NMEA0183,UDP:localhost:10110,GPALL,"$GPGSV,3,1,11,12,30,45,33,31,43,102,20,7,82,60,34,1,67,179,37*79<0D><0A>"
1773086993671,NMEA0183,UDP:localhost:10110,GPALL,"$GPGSV,3,2,11,17,29,196,37,21,35,145,38,15,68,270,33,9,59,29,37*74<0D><0A>"
1773086993671,NMEA0183,UDP:localhost:10110,GPALL,"$GPGSV,3,3,11,28,16,328,24,8,13,102,21,5,24,41,47*74<0D><0A>"
1773086993672,NMEA0183,UDP:localhost:10110,GPALL,"$GPVTG,72.8,T,75.3,M,1.6,N,2.9,K,A*23<0D><0A>"
1773086993672,NMEA0183,UDP:localhost:10110,IIALL,"$IIHDG,72.8,,,2.5,W*0A<0D><0A>"
1773086993672,NMEA0183,UDP:localhost:10110,VHALL,"$VHW,72.8,T,75.3,M,1.6,N,2.9,K*55<0D><0A>"
1773086993672,NMEA0183,UDP:localhost:10110,MTALL,"$MTW,18.0,C*1A<0D><0A>"
1773086993672,NMEA0183,UDP:localhost:10110,WIALL,"$WIMWV,161.9,R,12.4,N,A*1B<0D><0A>"
1773086993672,NMEA0183,UDP:localhost:10110,WIALL,"$WIMWV,161.9,R,12.4,N,A*1B<0D><0A>"
1773086994671,NMEA0183,UDP:localhost:10110,GPALL,"$GPRMC,200954.66,A,4004.4385,N,01500.8471,E,1.6,74.2,090326,2.5,W*7B<0D><0A>"
1773086994671,NMEA0183,UDP:localhost:10110,GPALL,"$GPGGA,200954.66,4004.4385,N,01500.8471,E,1,10,1.1,10.0,M,0.0,M,,*62<0D><0A>"
1773086994672,NMEA0183,UDP:localhost:10110,GPALL,"$GPGSA,A,3,11,28,25,7,27,18,32,8,9,5,,,2.4,1.6,1.2*33<0D><0A>"
1773086994672,NMEA0183,UDP:localhost:10110,GPALL,"$GPGSV,3,1,10,11,20,228,40,28,23,189,49,25,7,177,40,7,32,270,36*71<0D><0A>"
1773086994672,NMEA0183,UDP:localhost:10110,GPALL,"$GPGSV,3,2,10,27,20,108,20,18,59,256,40,32,48,288,33,8,83,130,32*4A<0D><0A>"
1773086994672,NMEA0183,UDP:localhost:10110,GPALL,"$GPGSV,3,3,10,9,20,26,50,5,42,209,42*4C<0D><0A>"
1773086994672,NMEA0183,UDP:localhost:10110,GPALL,"$GPVTG,74.2,T,76.7,M,1.6,N,3.0,K,A*20<0D><0A>"
1773086994672,NMEA0183,UDP:localhost:10110,IIALL,"$IIHDG,74.2,,,2.5,W*06<0D><0A>"
1773086994672,NMEA0183,UDP:localhost:10110,VHALL,"$VHW,74.2,T,76.7,M,1.6,N,3.0,K*56<0D><0A>"
1773086994672,NMEA0183,UDP:localhost:10110,MTALL,"$MTW,18.0,C*1A<0D><0A>"
1773086994672,NMEA0183,UDP:localhost:10110,WIALL,"$WIMWV,139.4,R,9.9,N,A*2C<0D><0A>"
1773086994672,NMEA0183,UDP:localhost:10110,WIALL,"$WIMWV,139.4,R,9.9,N,A*2C<0D><0A>"
1773086995674,NMEA0183,UDP:localhost:10110,GPALL,"$GPRMC,200955.67,A,4004.4386,N,01500.8477,E,1.8,72.7,090326,2.5,W*73<0D><0A>"
1773086995674,NMEA0183,UDP:localhost:10110,GPALL,"$GPGGA,200955.67,4004.4386,N,01500.8477,E,1,10,2.0,10.0,M,0.0,M,,*65<0D><0A>"
1773086995674,NMEA0183,UDP:localhost:10110,GPALL,"$GPGSA,A,3,2,8,17,27,14,24,30,6,11,10,,,1.5,1.9,2.2*00<0D><0A>"
1773086995674,NMEA0183,UDP:localhost:10110,GPALL,"$GPGSV,3,1,10,2,56,255,28,8,26,286,43,17,18,69,49,27,68,179,37*49<0D><0A>"
1773086995674,NMEA0183,UDP:localhost:10110,GPALL,"$GPGSV,3,2,10,14,51,194,42,24,43,249,21,30,74,152,49,6,12,16,27*73<0D><0A>"
1773086995674,NMEA0183,UDP:localhost:10110,GPALL,"$GPGSV,3,3,10,11,71,254,41,10,63,54,35*4B<0D><0A>"
1773086995674,NMEA0183,UDP:localhost:10110,GPALL,"$GPVTG,72.7,T,75.2,M,1.8,N,3.4,K,A*2F<0D><0A>"
1773086995674,NMEA0183,UDP:localhost:10110,IIALL,"$IIHDG,72.7,,,2.5,W*05<0D><0A>"
1773086995674,NMEA0183,UDP:localhost:10110,VHALL,"$VHW,72.7,T,75.2,M,1.8,N,3.4,K*59<0D><0A>"
1773086995674,NMEA0183,UDP:localhost:10110,MTALL,"$MTW,18.0,C*1A<0D><0A>"
1773086995675,NMEA0183,UDP:localhost:10110,WIALL,"$WIMWV,161.8,R,9.5,N,A*21<0D><0A>"
1773086995675,NMEA0183,UDP:localhost:10110,WIALL,"$WIMWV,161.8,R,9.5,N,A*21<0D><0A>"
1773086996674,NMEA0183,UDP:localhost:10110,GPALL,"$GPRMC,200956.67,A,4004.4388,N,01500.8483,E,1.7,71.6,090326,2.5,W*78<0D><0A>"
1773086996675,NMEA0183,UDP:localhost:10110,GPALL,"$GPGGA,200956.67,4004.4388,N,01500.8483,E,1,12,0.9,10.0,M,0.0,M,,*6A<0D><0A>"
1773086996675,NMEA0183,UDP:localhost:10110,GPALL,"$GPGSA,A,3,28,22,19,1,13,3,24,18,17,11,32,8,1.8,1.9,0.9*08<0D><0A>"
1773086996675,NMEA0183,UDP:localhost:10110,GPALL,"$GPGSV,3,1,12,28,66,198,39,22,62,53,42,19,46,22,28,1,0,248,36*76<0D><0A>"
1773086996675,NMEA0183,UDP:localhost:10110,GPALL,"$GPGSV,3,2,12,13,90,273,49,3,32,3,35,24,1,185,24,18,81,7,22*76<0D><0A>"
1773086996675,NMEA0183,UDP:localhost:10110,GPALL,"$GPGSV,3,3,12,17,89,276,49,11,5,114,33,32,16,328,34,8,58,295,21*72<0D><0A>"
1773086996675,NMEA0183,UDP:localhost:10110,GPALL,"$GPVTG,71.6,T,74.1,M,1.7,N,3.1,K,A*25<0D><0A>"
1773086996675,NMEA0183,UDP:localhost:10110,IIALL,"$IIHDG,71.6,,,2.5,W*07<0D><0A>"
1773086996675,NMEA0183,UDP:localhost:10110,VHALL,"$VHW,71.6,T,74.1,M,1.7,N,3.1,K*53<0D><0A>"
1773086996675,NMEA0183,UDP:localhost:10110,MTALL,"$MTW,18.0,C*1A<0D><0A>"
1773086996675,NMEA0183,UDP:localhost:10110,WIALL,"$WIMWV,150.8,R,12.1,N,A*1D<0D><0A>"
1773086996675,NMEA0183,UDP:localhost:10110,WIALL,"$WIMWV,150.8,R,12.1,N,A*1D<0D><0A>"
1773086997681,NMEA0183,UDP:localhost:10110,GPALL,"$GPRMC,200957.67,A,4004.4389,N,01500.8489,E,1.5,71.6,090326,2.5,W*70<0D><0A>"
1773086997681,NMEA0183,UDP:localhost:10110,GPALL,"$GPGGA,200957.67,4004.4389,N,01500.8489,E,1,10,1.5,10.0,M,0.0,M,,*6F<0D><0A>"
1773086997681,NMEA0183,UDP:localhost:10110,GPALL,"$GPGSA,A,3,9,26,13,2,7,25,14,18,10,23,,,2.3,1.2,0.9*08<0D><0A>"
1773086997681,NMEA0183,UDP:localhost:10110,GPALL,"$GPGSV,3,1,10,9,64,187,42,26,72,348,43,13,49,95,43,2,14,80,47*78<0D><0A>"
1773086997681,NMEA0183,UDP:localhost:10110,GPALL,"$GPGSV,3,2,10,7,34,38,28,25,25,87,29,14,63,251,34,18,42,221,35*45<0D><0A>"
1773086997682,NMEA0183,UDP:localhost:10110,GPALL,"$GPGSV,3,3,10,10,43,354,46,23,71,180,24*76<0D><0A>"
1773086997682,NMEA0183,UDP:localhost:10110,GPALL,"$GPVTG,71.6,T,74.1,M,1.5,N,2.7,K,A*20<0D><0A>"
1773086997682,NMEA0183,UDP:localhost:10110,IIALL,"$IIHDG,71.6,,,2.5,W*07<0D><0A>"
1773086997682,NMEA0183,UDP:localhost:10110,VHALL,"$VHW,71.6,T,74.1,M,1.5,N,2.7,K*56<0D><0A>"
1773086997682,NMEA0183,UDP:localhost:10110,MTALL,"$MTW,18.0,C*1A<0D><0A>"
1773086997682,NMEA0183,UDP:localhost:10110,WIALL,"$WIMWV,157.9,R,9.0,N,A*20<0D><0A>"
1773086997682,NMEA0183,UDP:localhost:10110,WIALL,"$WIMWV,157.9,R,9.0,N,A*20<0D><0A>"
1773086998677,NMEA0183,UDP:localhost:10110,GPALL,"$GPRMC,200958.67,A,4004.4391,N,01500.8494,E,1.4,71.1,090326,2.5,W*7C<0D><0A>"
1773086998677,NMEA0183,UDP:localhost:10110,GPALL,"$GPGGA,200958.67,4004.4391,N,01500.8494,E,1,07,1.5,10.0,M,0.0,M,,*63<0D><0A>"
1773086998677,NMEA0183,UDP:localhost:10110,GPALL,"$GPGSA,A,3,8,19,26,13,20,9,3,,,,,,1.7,1.8,2.1*00<0D><0A>"
1773086998677,NMEA0183,UDP:localhost:10110,GPALL,"$GPGSV,2,1,7,8,23,234,31,19,32,358,23,26,19,116,49,13,19,280,25*75<0D><0A>"
1773086998677,NMEA0183,UDP:localhost:10110,GPALL,"$GPGSV,2,2,7,20,18,273,38,9,86,29,36,3,24,133,45*44<0D><0A>"
1773086998677,NMEA0183,UDP:localhost:10110,GPALL,"$GPVTG,71.1,T,73.6,M,1.4,N,2.6,K,A*27<0D><0A>"
1773086998677,NMEA0183,UDP:localhost:10110,IIALL,"$IIHDG,71.1,,,2.5,W*00<0D><0A>"
1773086998677,NMEA0183,UDP:localhost:10110,VHALL,"$VHW,71.1,T,73.6,M,1.4,N,2.6,K*51<0D><0A>"
1773086998678,NMEA0183,UDP:localhost:10110,MTALL,"$MTW,18.0,C*1A<0D><0A>"
1773086998678,NMEA0183,UDP:localhost:10110,WIALL,"$WIMWV,153.6,R,10.4,N,A*17<0D><0A>"
1773086998678,NMEA0183,UDP:localhost:10110,WIALL,"$WIMWV,153.6,R,10.4,N,A*17<0D><0A>"
1773086999678,NMEA0183,UDP:localhost:10110,GPALL,"$GPRMC,200959.67,A,4004.4392,N,01500.8499,E,1.6,70.9,090326,2.5,W*78<0D><0A>"
1773086999679,NMEA0183,UDP:localhost:10110,GPALL,"$GPGGA,200959.67,4004.4392,N,01500.8499,E,1,11,1.7,10.0,M,0.0,M,,*69<0D><0A>"
1773086999679,NMEA0183,UDP:localhost:10110,GPALL,"$GPGSA,A,3,14,18,6,25,21,28,31,2,23,16,30,,2.3,1.7,2.1*37<0D><0A>"
1773086999679,NMEA0183,UDP:localhost:10110,GPALL,"$GPGSV,3,1,11,14,79,222,44,18,65,273,42,6,63,224,46,25,11,215,41*49<0D><0A>"
1773086999679,NMEA0183,UDP:localhost:10110,GPALL,"$GPGSV,3,2,11,21,30,331,34,28,0,148,34,31,54,105,28,2,44,221,28*7A<0D><0A>"
1773086999679,NMEA0183,UDP:localhost:10110,GPALL,"$GPGSV,3,3,11,23,40,164,27,16,53,109,43,30,76,255,21*47<0D><0A>"
1773086999679,NMEA0183,UDP:localhost:10110,GPALL,"$GPVTG,70.9,T,73.4,M,1.6,N,3.0,K,A*29<0D><0A>"
1773086999679,NMEA0183,UDP:localhost:10110,IIALL,"$IIHDG,70.9,,,2.5,W*09<0D><0A>"
1773086999679,NMEA0183,UDP:localhost:10110,VHALL,"$VHW,70.9,T,73.4,M,1.6,N,3.0,K*5F<0D><0A>"
1773086999679,NMEA0183,UDP:localhost:10110,MTALL,"$MTW,17.9,C*1C<0D><0A>"
1773086999679,NMEA0183,UDP:localhost:10110,WIALL,"$WIMWV,174.4,R,10.3,N,A*17<0D><0A>"
1773086999679,NMEA0183,UDP:localhost:10110,WIALL,"$WIMWV,174.4,R,10.3,N,A*17<0D><0A>"
1773087000680,NMEA0183,UDP:localhost:10110,GPALL,"$GPRMC,201000.67,A,4004.4393,N,01500.8504,E,1.6,71.3,090326,2.5,W*73<0D><0A>"
1773087000680,NMEA0183,UDP:localhost:10110,GPALL,"$GPGGA,201000.67,4004.4393,N,01500.8504,E,1,08,1.9,10.0,M,0.0,M,,*6F<0D><0A>"
1773087000680,NMEA0183,UDP:localhost:10110,GPALL,"$GPGSA,A,3,22,14,12,23,32,16,2,26,,,,,1.6,1.7,1.8*0D<0D><0A>"
1773087000680,NMEA0183,UDP:localhost:10110,GPALL,"$GPGSV,2,1,8,22,6,60,38,14,41,344,40,12,66,165,36,23,23,200,38*43<0D><0A>"
1773087000680,NMEA0183,UDP:localhost:10110,GPALL,"$GPGSV,2,2,8,32,8,317,25,16,54,311,26,2,81,303,40,26,27,337,23*43<0D><0A>"
1773087000680,NMEA0183,UDP:localhost:10110,GPALL,"$GPVTG,71.3,T,73.8,M,1.6,N,3.0,K,A*2E<0D><0A>"
1773087000680,NMEA0183,UDP:localhost:10110,IIALL,"$IIHDG,71.3,,,2.5,W*02<0D><0A>"
1773087000680,NMEA0183,UDP:localhost:10110,VHALL,"$VHW,71.3,T,73.8,M,1.6,N,3.0,K*58<0D><0A>"
1773087000680,NMEA0183,UDP:localhost:10110,MTALL,"$MTW,17.9,C*1C<0D><0A>"
1773087000680,NMEA0183,UDP:localhost:10110,WIALL,"$WIMWV,178.8,R,12.5,N,A*13<0D><0A>"
1773087000680,NMEA0183,UDP:localhost:10110,WIALL,"$WIMWV,178.8,R,12.5,N,A*13<0D><0A>"
1773087001681,NMEA0183,UDP:localhost:10110,GPALL,"$GPRMC,201001.67,A,4004.4395,N,01500.8510,E,1.6,73.2,090326,2.5,W*72<0D><0A>"
1773087001681,NMEA0183,UDP:localhost:10110,GPALL,"$GPGGA,201001.67,4004.4395,N,01500.8510,E,1,12,1.5,10.0,M,0.0,M,,*6A<0D><0A>"
1773087001681,NMEA0183,UDP:localhost:10110,GPALL,"$GPGSA,A,3,18,5,13,6,24,30,27,23,28,2,14,16,1.9,1.5,2.5*0A<0D><0A>"
1773087001681,NMEA0183,UDP:localhost:10110,GPALL,"$GPGSV,3,1,12,18,20,209,23,5,43,205,36,13,3,355,39,6,52,334,42*42<0D><0A>"
1773087001681,NMEA0183,UDP:localhost:10110,GPALL,"$GPGSV,3,2,12,24,52,221,46,30,64,204,40,27,38,163,44,23,68,260,20*79<0D><0A>"
1773087001681,NMEA0183,UDP:localhost:10110,GPALL,"$GPGSV,3,3,12,28,44,12,24,2,82,65,35,14,72,26,31,16,34,90,36*42<0D><0A>"
1773087001681,NMEA0183,UDP:localhost:10110,GPALL,"$GPVTG,73.2,T,75.7,M,1.6,N,3.0,K,A*24<0D><0A>"
1773087001681,NMEA0183,UDP:localhost:10110,IIALL,"$IIHDG,73.2,,,2.5,W*01<0D><0A>"
1773087001681,NMEA0183,UDP:localhost:10110,VHALL,"$VHW,73.2,T,75.7,M,1.6,N,3.0,K*52<0D><0A>"
1773087001682,NMEA0183,UDP:localhost:10110,MTALL,"$MTW,17.9,C*1C<0D><0A>"
1773087001682,NMEA0183,UDP:localhost:10110,WIALL,"$WIMWV,174.9,R,12.4,N,A*1F<0D><0A>"
1773087001682,NMEA0183,UDP:localhost:10110,WIALL,"$WIMWV,174.9,R,12.4,N,A*1F<0D><0A>"
1773087002682,NMEA0183,UDP:localhost:10110,GPALL,"$GPRMC,201002.67,A,4004.4396,N,01500.8516,E,1.6,74.9,090326,2.5,W*78<0D><0A>"
1773087002682,NMEA0183,UDP:localhost:10110,GPALL,"$GPGGA,201002.67,4004.4396,N,01500.8516,E,1,07,1.9,10.0,M,0.0,M,,*64<0D><0A>"
1773087002682,NMEA0183,UDP:localhost:10110,GPALL,"$GPGSA,A,3,22,4,8,30,1,20,25,,,,,,1.5,0.8,1.2*06<0D><0A>"
1773087002682,NMEA0183,UDP:localhost:10110,GPALL,"$GPGSV,2,1,7,22,71,31,38,4,33,309,47,8,61,146,47,30,84,120,26*78<0D><0A>"
1773087002683,NMEA0183,UDP:localhost:10110,GPALL,"$GPGSV,2,2,7,1,66,234,44,20,77,63,49,25,47,177,49*78<0D><0A>"
1773087002683,NMEA0183,UDP:localhost:10110,GPALL,"$GPVTG,74.9,T,77.4,M,1.6,N,3.0,K,A*29<0D><0A>"
1773087002683,NMEA0183,UDP:localhost:10110,IIALL,"$IIHDG,74.9,,,2.5,W*0D<0D><0A>"
1773087002683,NMEA0183,UDP:localhost:10110,VHALL,"$VHW,74.9,T,77.4,M,1.6,N,3.0,K*5F<0D><0A>"
1773087002683,NMEA0183,UDP:localhost:10110,MTALL,"$MTW,17.9,C*1C<0D><0A>"
1773087002683,NMEA0183,UDP:localhost:10110,WIALL,"$WIMWV,132.6,R,10.1,N,A*15<0D><0A>"
1773087002683,NMEA0183,UDP:localhost:10110,WIALL,"$WIMWV,132.6,R,10.1,N,A*15<0D><0A>"
1773087003684,NMEA0183,UDP:localhost:10110,GPALL,"$GPRMC,201003.68,A,4004.4397,N,01500.8521,E,1.4,75.9,090326,2.5,W*70<0D><0A>"
1773087003684,NMEA0183,UDP:localhost:10110,GPALL,"$GPGGA,201003.68,4004.4397,N,01500.8521,E,1,06,1.1,10.0,M,0.0,M,,*66<0D><0A>"
1773087003684,NMEA0183,UDP:localhost:10110,GPALL,"$GPGSA,A,3,3,20,9,1,5,14,,,,,,,2.1,1.2,1.9*33<0D><0A>"
1773087003684,NMEA0183,UDP:localhost:10110,GPALL,"$GPGSV,2,1,6,3,29,182,50,20,57,64,34,9,84,308,31,1,43,51,22*71<0D><0A>"
1773087003684,NMEA0183,UDP:localhost:10110,GPALL,"$GPGSV,2,2,6,5,90,187,44,14,23,140,20*7E<0D><0A>"
1773087003684,NMEA0183,UDP:localhost:10110,GPALL,"$GPVTG,75.9,T,78.4,M,1.4,N,2.6,K,A*22<0D><0A>"
1773087003684,NMEA0183,UDP:localhost:10110,IIALL,"$IIHDG,75.9,,,2.5,W*0C<0D><0A>"
1773087003684,NMEA0183,UDP:localhost:10110,VHALL,"$VHW,75.9,T,78.4,M,1.4,N,2.6,K*54<0D><0A>"
1773087003684,NMEA0183,UDP:localhost:10110,MTALL,"$MTW,17.9,C*1C<0D><0A>"
1773087003684,NMEA0183,UDP:localhost:10110,WIALL,"$WIMWV,133.6,R,9.5,N,A*28<0D><0A>"
1773087003684,NMEA0183,UDP:localhost:10110,WIALL,"$WIMWV,133.6,R,9.5,N,A*28<0D><0A>"
1773087004685,NMEA0183,UDP:localhost:10110,GPALL,"$GPRMC,201004.68,A,4004.4398,N,01500.8526,E,1.4,74.2,090326,2.5,W*75<0D><0A>"
1773087004685,NMEA0183,UDP:localhost:10110,GPALL,"$GPGGA,201004.68,4004.4398,N,01500.8526,E,1,09,1.0,10.0,M,0.0,M,,*67<0D><0A>"
1773087004685,NMEA0183,UDP:localhost:10110,GPALL,"$GPGSA,A,3,29,8,11,1,7,25,22,24,9,,,,2.4,1.0,1.2*3B<0D><0A>"
1773087004685,NMEA0183,UDP:localhost:10110,GPALL,"$GPGSV,3,1,9,29,19,75,31,8,27,355,33,11,75,179,32,1,19,220,32*7B<0D><0A>"
1773087004685,NMEA0183,UDP:localhost:10110,GPALL,"$GPGSV,3,2,9,7,82,173,39,25,17,89,49,22,58,39,24,24,26,124,25*7D<0D><0A>"
1773087004685,NMEA0183,UDP:localhost:10110,GPALL,"$GPGSV,3,3,9,9,90,325,23*45<0D><0A>"
1773087004686,NMEA0183,UDP:localhost:10110,GPALL,"$GPVTG,74.2,T,76.7,M,1.4,N,2.7,K,A*24<0D><0A>"
1773087004686,NMEA0183,UDP:localhost:10110,IIALL,"$IIHDG,74.2,,,2.5,W*06<0D><0A>"
1773087004686,NMEA0183,UDP:localhost:10110,VHALL,"$VHW,74.2,T,76.7,M,1.4,N,2.7,K*52<0D><0A>"
1773087004686,NMEA0183,UDP:localhost:10110,MTALL,"$MTW,17.9,C*1C<0D><0A>"
1773087004686,NMEA0183,UDP:localhost:10110,WIALL,"$WIMWV,157.7,R,8.9,N,A*26<0D><0A>"
1773087004686,NMEA0183,UDP:localhost:10110,WIALL,"$WIMWV,157.7,R,8.9,N,A*26<0D><0A>"
1773087005686,NMEA0183,UDP:localhost:10110,GPALL,"$GPRMC,201005.68,A,4004.4399,N,01500.8531,E,1.6,73.5,090326,2.5,W*71<0D><0A>"
1773087005686,NMEA0183,UDP:localhost:10110,GPALL,"$GPGGA,201005.68,4004.4399,N,01500.8531,E,1,05,1.1,10.0,M,0.0,M,,*6C<0D><0A>"
1773087005686,NMEA0183,UDP:localhost:10110,GPALL,"$GPGSA,A,3,1,13,2,9,6,,,,,,,,1.4,0.6,1.3*3D<0D><0A>"
1773087005687,NMEA0183,UDP:localhost:10110,GPALL,"$GPGSV,2,1,5,1,14,317,35,13,14,120,34,2,68,25,22,9,89,239,39*4A<0D><0A>"
1773087005687,NMEA0183,UDP:localhost:10110,GPALL,"$GPGSV,2,2,5,6,59,184,33*4B<0D><0A>"
1773087005687,NMEA0183,UDP:localhost:10110,GPALL,"$GPVTG,73.5,T,76.0,M,1.6,N,2.9,K,A*2F<0D><0A>"
1773087005687,NMEA0183,UDP:localhost:10110,IIALL,"$IIHDG,73.5,,,2.5,W*06<0D><0A>"
1773087005687,NMEA0183,UDP:localhost:10110,VHALL,"$VHW,73.5,T,76.0,M,1.6,N,2.9,K*59<0D><0A>"
1773087005687,NMEA0183,UDP:localhost:10110,MTALL,"$MTW,17.9,C*1C<0D><0A>"
1773087005687,NMEA0183,UDP:localhost:10110,WIALL,"$WIMWV,173.5,R,8.9,N,A*22<0D><0A>"
1773087005687,NMEA0183,UDP:localhost:10110,WIALL,"$WIMWV,173.5,R,8.9,N,A*22<0D><0A>"
1773087006688,NMEA0183,UDP:localhost:10110,GPALL,"$GPRMC,201006.68,A,4004.4401,N,01500.8537,E,1.7,74.6,090326,2.5,W*77<0D><0A>"
1773087006688,NMEA0183,UDP:localhost:10110,GPALL,"$GPGGA,201006.68,4004.4401,N,01500.8537,E,1,11,1.1,10.0,M,0.0,M,,*6A<0D><0A>"
1773087006688,NMEA0183,UDP:localhost:10110,GPALL,"$GPGSA,A,3,17,8,31,3,21,28,23,30,11,20,24,,2.5,1.6,1.7*34<0D><0A>"
1773087006688,NMEA0183,UDP:localhost:10110,GPALL,"$GPGSV,3,1,11,17,45,322,24,8,19,165,26,31,37,91,27,3,54,289,49*48<0D><0A>"
1773087006688,NMEA0183,UDP:localhost:10110,GPALL,"$GPGSV,3,2,11,21,7,244,36,28,1,178,25,23,4,59,31,30,60,170,41*74<0D><0A>"
1773087006688,NMEA0183,UDP:localhost:10110,GPALL,"$GPGSV,3,3,11,11,12,109,44,20,83,104,36,24,81,244,31*44<0D><0A>"
1773087006688,NMEA0183,UDP:localhost:10110,GPALL,"$GPVTG,74.6,T,77.1,M,1.7,N,3.2,K,A*20<0D><0A>"
1773087006688,NMEA0183,UDP:localhost:10110,IIALL,"$IIHDG,74.6,,,2.5,W*02<0D><0A>"
1773087006688,NMEA0183,UDP:localhost:10110,VHALL,"$VHW,74.6,T,77.1,M,1.7,N,3.2,K*56<0D><0A>"
1773087006689,NMEA0183,UDP:localhost:10110,MTALL,"$MTW,17.9,C*1C<0D><0A>"
1773087006689,NMEA0183,UDP:localhost:10110,WIALL,"$WIMWV,164.4,R,11.6,N,A*12<0D><0A>"
1773087006689,NMEA0183,UDP:localhost:10110,WIALL,"$WIMWV,164.4,R,11.6,N,A*12<0D><0A>"
1773087007688,NMEA0183,UDP:localhost:10110,GPALL,"$GPRMC,201007.68,A,4004.4402,N,01500.8543,E,1.8,74.6,090326,2.5,W*79<0D><0A>"
1773087007688,NMEA0183,UDP:localhost:10110,GPALL,"$GPGGA,201007.68,4004.4402,N,01500.8543,E,1,08,1.3,10.0,M,0.0,M,,*61<0D><0A>"
1773087007688,NMEA0183,UDP:localhost:10110,GPALL,"$GPGSA,A,3,3,18,14,28,21,4,23,20,,,,,2.2,1.4,2.5*31<0D><0A>"
1773087007689,NMEA0183,UDP:localhost:10110,GPALL,"$GPGSV,2,1,8,3,30,284,34,18,41,325,26,14,64,312,37,28,37,304,48*71<0D><0A>"
1773087007689,NMEA0183,UDP:localhost:10110,GPALL,"$GPGSV,2,2,8,21,84,183,35,4,74,109,43,23,27,201,30,20,25,28,42*47<0D><0A>"
1773087007689,NMEA0183,UDP:localhost:10110,GPALL,"$GPVTG,74.6,T,77.1,M,1.8,N,3.4,K,A*29<0D><0A>"
1773087007689,NMEA0183,UDP:localhost:10110,IIALL,"$IIHDG,74.6,,,2.5,W*02<0D><0A>"
1773087007689,NMEA0183,UDP:localhost:10110,VHALL,"$VHW,74.6,T,77.1,M,1.8,N,3.4,K*5F<0D><0A>"
1773087007689,NMEA0183,UDP:localhost:10110,MTALL,"$MTW,17.9,C*1C<0D><0A>"
1773087007689,NMEA0183,UDP:localhost:10110,WIALL,"$WIMWV,136.8,R,13.7,N,A*1A<0D><0A>"
1773087007689,NMEA0183,UDP:localhost:10110,WIALL,"$WIMWV,136.8,R,13.7,N,A*1A<0D><0A>"
1773087008690,NMEA0183,UDP:localhost:10110,GPALL,"$GPRMC,201008.68,A,4004.4403,N,01500.8549,E,2.0,73.4,090326,2.5,W*73<0D><0A>"
1773087008690,NMEA0183,UDP:localhost:10110,GPALL,"$GPGGA,201008.68,4004.4403,N,01500.8549,E,1,10,1.9,10.0,M,0.0,M,,*66<0D><0A>"
1773087008690,NMEA0183,UDP:localhost:10110,GPALL,"$GPGSA,A,3,13,16,9,17,5,1,24,11,28,10,,,1.1,1.6,1.6*01<0D><0A>"
1773087008690,NMEA0183,UDP:localhost:10110,GPALL,"$GPGSV,3,1,10,13,86,265,25,16,45,104,46,9,78,321,22,17,24,324,38*49<0D><0A>"
1773087008690,NMEA0183,UDP:localhost:10110,GPALL,"$GPGSV,3,2,10,5,86,137,47,1,61,341,46,24,71,266,48,11,12,53,47*4E<0D><0A>"
1773087008690,NMEA0183,UDP:localhost:10110,GPALL,"$GPGSV,3,3,10,28,69,290,48,10,10,164,38*72<0D><0A>"
1773087008690,NMEA0183,UDP:localhost:10110,GPALL,"$GPVTG,73.4,T,75.9,M,2.0,N,3.6,K,A*2F<0D><0A>"
1773087008690,NMEA0183,UDP:localhost:10110,IIALL,"$IIHDG,73.4,,,2.5,W*07<0D><0A>"
1773087008690,NMEA0183,UDP:localhost:10110,VHALL,"$VHW,73.4,T,75.9,M,2.0,N,3.6,K*59<0D><0A>"
1773087008690,NMEA0183,UDP:localhost:10110,MTALL,"$MTW,17.9,C*1C<0D><0A>"
1773087008690,NMEA0183,UDP:localhost:10110,WIALL,"$WIMWV,143.0,R,11.7,N,A*12<0D><0A>"
1773087008690,NMEA0183,UDP:localhost:10110,WIALL,"$WIMWV,143.0,R,11.7,N,A*12<0D><0A>"
1773087010096,NMEA0183,UDP:localhost:10110,GPALL,"$GPRMC,201009.68,A,4004.4405,N,01500.8556,E,2.1,75.0,090326,2.5,W*79<0D><0A>"
1773087010096,NMEA0183,UDP:localhost:10110,GPALL,"$GPGGA,201009.68,4004.4405,N,01500.8556,E,1,09,1.0,10.0,M,0.0,M,,*6E<0D><0A>"
1773087010097,NMEA0183,UDP:localhost:10110,GPALL,"$GPGSA,A,3,21,19,16,29,13,31,15,25,24,,,,1.4,0.6,2.0*31<0D><0A>"
1773087010097,NMEA0183,UDP:localhost:10110,GPALL,"$GPGSV,3,1,9,21,30,229,23,19,31,135,24,16,19,36,43,29,69,219,41*77<0D><0A>"
1773087010097,NMEA0183,UDP:localhost:10110,GPALL,"$GPGSV,3,2,9,13,1,88,35,31,49,19,32,15,61,114,40,25,38,1,44*7C<0D><0A>"
1773087010097,NMEA0183,UDP:localhost:10110,GPALL,"$GPGSV,3,3,9,24,86,105,33*7C<0D><0A>"
1773087010097,NMEA0183,UDP:localhost:10110,GPALL,"$GPVTG,75.0,T,77.5,M,2.1,N,3.8,K,A*2C<0D><0A>"
1773087010097,NMEA0183,UDP:localhost:10110,IIALL,"$IIHDG,75.0,,,2.5,W*05<0D><0A>"
1773087010097,NMEA0183,UDP:localhost:10110,VHALL,"$VHW,75.0,T,77.5,M,2.1,N,3.8,K*5A<0D><0A>"
1773087010097,NMEA0183,UDP:localhost:10110,MTALL,"$MTW,17.9,C*1C<0D><0A>"
1773087010097,NMEA0183,UDP:localhost:10110,WIALL,"$WIMWV,143.3,R,10.1,N,A*16<0D><0A>"
1773087010097,NMEA0183,UDP:localhost:10110,WIALL,"$WIMWV,143.3,R,10.1,N,A*16<0D><0A>"
1773087010692,NMEA0183,UDP:localhost:10110,GPALL,"$GPRMC,201010.68,A,4004.4406,N,01500.8563,E,2.0,75.8,090326,2.5,W*7D<0D><0A>"
1773087010692,NMEA0183,UDP:localhost:10110,GPALL,"$GPGGA,201010.68,4004.4406,N,01500.8563,E,1,11,1.2,10.0,M,0.0,M,,*68<0D><0A>"
1773087010692,NMEA0183,UDP:localhost:10110,GPALL,"$GPGSA,A,3,4,14,12,8,32,28,26,22,15,7,27,,1.4,1.1,2.0*06<0D><0A>"
1773087010692,NMEA0183,UDP:localhost:10110,GPALL,"$GPGSV,3,1,11,4,58,44,28,14,29,285,35,12,54,117,47,8,57,9,23*4B<0D><0A>"
1773087010692,NMEA0183,UDP:localhost:10110,GPALL,"$GPGSV,3,2,11,32,88,243,42,28,78,201,22,26,69,191,35,22,13,96,41*40<0D><0A>"
1773087010692,NMEA0183,UDP:localhost:10110,GPALL,"$GPGSV,3,3,11,15,46,92,50,7,16,328,43,27,2,350,21*7D<0D><0A>"
1773087010692,NMEA0183,UDP:localhost:10110,GPALL,"$GPVTG,75.8,T,78.3,M,2.0,N,3.7,K,A*23<0D><0A>"
1773087010692,NMEA0183,UDP:localhost:10110,IIALL,"$IIHDG,75.8,,,2.5,W*0D<0D><0A>"
1773087010693,NMEA0183,UDP:localhost:10110,VHALL,"$VHW,75.8,T,78.3,M,2.0,N,3.7,K*55<0D><0A>"
1773087010693,NMEA0183,UDP:localhost:10110,MTALL,"$MTW,18.0,C*1A<0D><0A>"
1773087010693,NMEA0183,UDP:localhost:10110,WIALL,"$WIMWV,158.1,R,9.9,N,A*2E<0D><0A>"
1773087010693,NMEA0183,UDP:localhost:10110,WIALL,"$WIMWV,158.1,R,9.9,N,A*2E<0D><0A>"
1773087011693,NMEA0183,UDP:localhost:10110,GPALL,"$GPRMC,201011.69,A,4004.4408,N,01500.8570,E,1.8,76.9,090326,2.5,W*78<0D><0A>"
1773087011693,NMEA0183,UDP:localhost:10110,GPALL,"$GPGGA,201011.69,4004.4408,N,01500.8570,E,1,09,1.0,10.0,M,0.0,M,,*6F<0D><0A>"
1773087011693,NMEA0183,UDP:localhost:10110,GPALL,"$GPGSA,A,3,21,12,3,25,5,32,26,20,13,,,,1.7,1.3,0.8*3A<0D><0A>"
1773087011693,NMEA0183,UDP:localhost:10110,GPALL,"$GPGSV,3,1,9,21,1,124,37,12,10,7,23,3,53,36,44,25,41,33,38*4E<0D><0A>"
1773087011694,NMEA0183,UDP:localhost:10110,GPALL,"$GPGSV,3,2,9,5,59,9,47,32,39,101,36,26,43,64,48,20,27,325,32*43<0D><0A>"
1773087011694,NMEA0183,UDP:localhost:10110,GPALL,"$GPGSV,3,3,9,13,71,330,26*70<0D><0A>"
1773087011694,NMEA0183,UDP:localhost:10110,GPALL,"$GPVTG,76.9,T,79.4,M,1.8,N,3.4,K,A*2F<0D><0A>"
1773087011694,NMEA0183,UDP:localhost:10110,IIALL,"$IIHDG,76.9,,,2.5,W*0F<0D><0A>"
1773087011694,NMEA0183,UDP:localhost:10110,VHALL,"$VHW,76.9,T,79.4,M,1.8,N,3.4,K*59<0D><0A>"
1773087011694,NMEA0183,UDP:localhost:10110,MTALL,"$MTW,18.0,C*1A<0D><0A>"
1773087011694,NMEA0183,UDP:localhost:10110,WIALL,"$WIMWV,141.8,R,9.5,N,A*23<0D><0A>"
1773087011694,NMEA0183,UDP:localhost:10110,WIALL,"$WIMWV,141.8,R,9.5,N,A*23<0D><0A>"
1773087012695,NMEA0183,UDP:localhost:10110,GPALL,"$GPRMC,201012.69,A,4004.4409,N,01500.8577,E,1.7,75.8,090326,2.5,W*70<0D><0A>"
1773087012695,NMEA0183,UDP:localhost:10110,GPALL,"$GPGGA,201012.69,4004.4409,N,01500.8577,E,1,10,1.3,10.0,M,0.0,M,,*61<0D><0A>"
1773087012695,NMEA0183,UDP:localhost:10110,GPALL,"$GPGSA,A,3,2,23,27,1,13,14,3,26,31,12,,,1.8,0.7,1.7*0C<0D><0A>"
1773087012695,NMEA0183,UDP:localhost:10110,GPALL,"$GPGSV,3,1,10,2,77,307,40,23,53,76,45,27,82,200,45,1,71,37,47*73<0D><0A>"
1773087012695,NMEA0183,UDP:localhost:10110,GPALL,"$GPGSV,3,2,10,13,90,39,21,14,17,121,31,3,52,9,45,26,18,115,47*7F<0D><0A>"
1773087012695,NMEA0183,UDP:localhost:10110,GPALL,"$GPGSV,3,3,10,31,75,150,26,12,65,97,24*40<0D><0A>"
1773087012695,NMEA0183,UDP:localhost:10110,GPALL,"$GPVTG,75.8,T,78.3,M,1.7,N,3.2,K,A*22<0D><0A>"
1773087012695,NMEA0183,UDP:localhost:10110,IIALL,"$IIHDG,75.8,,,2.5,W*0D<0D><0A>"
1773087012695,NMEA0183,UDP:localhost:10110,VHALL,"$VHW,75.8,T,78.3,M,1.7,N,3.2,K*54<0D><0A>"
1773087012695,NMEA0183,UDP:localhost:10110,MTALL,"$MTW,18.1,C*1B<0D><0A>"
1773087012695,NMEA0183,UDP:localhost:10110,WIALL,"$WIMWV,182.9,R,12.0,N,A*12<0D><0A>"
1773087012695,NMEA0183,UDP:localhost:10110,WIALL,"$WIMWV,182.9,R,12.0,N,A*12<0D><0A>"
1773087013696,NMEA0183,UDP:localhost:10110,GPALL,"$GPRMC,201013.69,A,4004.4410,N,01500.8583,E,1.9,75.9,090326,2.5,W*7D<0D><0A>"
1773087013696,NMEA0183,UDP:localhost:10110,GPALL,"$GPGGA,201013.69,4004.4410,N,01500.8583,E,1,05,1.8,10.0,M,0.0,M,,*6C<0D><0A>"
1773087013696,NMEA0183,UDP:localhost:10110,GPALL,"$GPGSA,A,3,10,1,31,7,18,,,,,,,,2.0,1.8,2.0*37<0D><0A>"
1773087013696,NMEA0183,UDP:localhost:10110,GPALL,"$GPGSV,2,1,5,10,14,254,39,1,89,140,39,31,57,237,34,7,4,40,42*4D<0D><0A>"
1773087013696,NMEA0183,UDP:localhost:10110,GPALL,"$GPGSV,2,2,5,18,70,241,37*71<0D><0A>"
1773087013696,NMEA0183,UDP:localhost:10110,GPALL,"$GPVTG,75.9,T,78.4,M,1.9,N,3.5,K,A*2D<0D><0A>"
1773087013696,NMEA0183,UDP:localhost:10110,IIALL,"$IIHDG,75.9,,,2.5,W*0C<0D><0A>"
1773087013696,NMEA0183,UDP:localhost:10110,VHALL,"$VHW,75.9,T,78.4,M,1.9,N,3.5,K*5B<0D><0A>"
1773087013696,NMEA0183,UDP:localhost:10110,MTALL,"$MTW,18.0,C*1A<0D><0A>"
1773087013696,NMEA0183,UDP:localhost:10110,WIALL,"$WIMWV,149.7,R,12.1,N,A*1A<0D><0A>"
1773087013696,NMEA0183,UDP:localhost:10110,WIALL,"$WIMWV,149.7,R,12.1,N,A*1A<0D><0A>"
1773087014697,NMEA0183,UDP:localhost:10110,GPALL,"$GPRMC,201014.69,A,4004.4411,N,01500.8590,E,1.7,76.8,090326,2.5,W*75<0D><0A>"
1773087014697,NMEA0183,UDP:localhost:10110,GPALL,"$GPGGA,201014.69,4004.4411,N,01500.8590,E,1,10,1.6,10.0,M,0.0,M,,*62<0D><0A>"
1773087014697,NMEA0183,UDP:localhost:10110,GPALL,"$GPGSA,A,3,30,15,17,23,7,18,20,25,14,21,,,1.9,1.7,1.4*04<0D><0A>"
1773087014697,NMEA0183,UDP:localhost:10110,GPALL,"$GPGSV,3,1,10,30,87,127,50,15,71,23,40,17,88,268,29,23,2,96,30*4E<0D><0A>"
1773087014697,NMEA0183,UDP:localhost:10110,GPALL,"$GPGSV,3,2,10,7,11,143,30,18,5,54,33,20,82,104,50,25,50,353,44*49<0D><0A>"
1773087014697,NMEA0183,UDP:localhost:10110,GPALL,"$GPGSV,3,3,10,14,21,68,26,21,18,167,44*4E<0D><0A>"
1773087014697,NMEA0183,UDP:localhost:10110,GPALL,"$GPVTG,76.8,T,79.3,M,1.7,N,3.2,K,A*20<0D><0A>"
1773087014697,NMEA0183,UDP:localhost:10110,IIALL,"$IIHDG,76.8,,,2.5,W*0E<0D><0A>"
1773087014697,NMEA0183,UDP:localhost:10110,VHALL,"$VHW,76.8,T,79.3,M,1.7,N,3.2,K*56<0D><0A>"
1773087014697,NMEA0183,UDP:localhost:10110,MTALL,"$MTW,18.0,C*1A<0D><0A>"
1773087014697,NMEA0183,UDP:localhost:10110,WIALL,"$WIMWV,166.3,R,11.3,N,A*12<0D><0A>"
1773087014697,NMEA0183,UDP:localhost:10110,WIALL,"$WIMWV,166.3,R,11.3,N,A*12<0D><0A>"
1773087015697,NMEA0183,UDP:localhost:10110,GPALL,"$GPRMC,201015.69,A,4004.4412,N,01500.8596,E,1.8,75.8,090326,2.5,W*7D<0D><0A>"
1773087015698,NMEA0183,UDP:localhost:10110,GPALL,"$GPGGA,201015.69,4004.4412,N,01500.8596,E,1,08,1.1,10.0,M,0.0,M,,*68<0D><0A>"
1773087015698,NMEA0183,UDP:localhost:10110,GPALL,"$GPGSA,A,3,14,7,29,32,30,23,11,12,,,,,1.8,0.9,2.1*08<0D><0A>"
1773087015698,NMEA0183,UDP:localhost:10110,GPALL,"$GPGSV,2,1,8,14,77,98,48,7,75,182,20,29,40,262,41,32,83,289,21*40<0D><0A>"
1773087015698,NMEA0183,UDP:localhost:10110,GPALL,"$GPGSV,2,2,8,30,14,224,27,23,40,137,49,11,62,193,29,12,35,320,20*49<0D><0A>"
1773087015698,NMEA0183,UDP:localhost:10110,GPALL,"$GPVTG,75.8,T,78.3,M,1.8,N,3.3,K,A*2C<0D><0A>"
1773087015698,NMEA0183,UDP:localhost:10110,IIALL,"$IIHDG,75.8,,,2.5,W*0D<0D><0A>"
1773087015698,NMEA0183,UDP:localhost:10110,VHALL,"$VHW,75.8,T,78.3,M,1.8,N,3.3,K*5A<0D><0A>"
1773087015698,NMEA0183,UDP:localhost:10110,MTALL,"$MTW,18.0,C*1A<0D><0A>"
1773087015698,NMEA0183,UDP:localhost:10110,WIALL,"$WIMWV,140.0,R,10.9,N,A*1E<0D><0A>"
1773087015698,NMEA0183,UDP:localhost:10110,WIALL,"$WIMWV,140.0,R,10.9,N,A*1E<0D><0A>"
1773087016699,NMEA0183,UDP:localhost:10110,GPALL,"$GPRMC,201016.69,A,4004.4414,N,01500.8602,E,1.8,75.1,090326,2.5,W*7F<0D><0A>"
1773087016699,NMEA0183,UDP:localhost:10110,GPALL,"$GPGGA,201016.69,4004.4414,N,01500.8602,E,1,09,1.8,10.0,M,0.0,M,,*6B<0D><0A>"
1773087016699,NMEA0183,UDP:localhost:10110,GPALL,"$GPGSA,A,3,19,27,29,32,5,13,2,25,31,,,,1.0,1.5,1.5*34<0D><0A>"
1773087016699,NMEA0183,UDP:localhost:10110,GPALL,"$GPGSV,3,1,9,19,31,340,49,27,48,189,50,29,2,205,29,32,58,193,45*7D<0D><0A>"
1773087016699,NMEA0183,UDP:localhost:10110,GPALL,"$GPGSV,3,2,9,5,81,229,40,13,70,325,43,2,70,23,27,25,83,197,34*73<0D><0A>"
1773087016699,NMEA0183,UDP:localhost:10110,GPALL,"$GPGSV,3,3,9,31,21,297,40*79<0D><0A>"
1773087016699,NMEA0183,UDP:localhost:10110,GPALL,"$GPVTG,75.1,T,77.6,M,1.8,N,3.3,K,A*2F<0D><0A>"
1773087016699,NMEA0183,UDP:localhost:10110,IIALL,"$IIHDG,75.1,,,2.5,W*04<0D><0A>"
1773087016700,NMEA0183,UDP:localhost:10110,VHALL,"$VHW,75.1,T,77.6,M,1.8,N,3.3,K*59<0D><0A>"
1773087016700,NMEA0183,UDP:localhost:10110,MTALL,"$MTW,18.0,C*1A<0D><0A>"
1773087016700,NMEA0183,UDP:localhost:10110,WIALL,"$WIMWV,137.9,R,9.0,N,A*26<0D><0A>"
1773087016700,NMEA0183,UDP:localhost:10110,WIALL,"$WIMWV,137.9,R,9.0,N,A*26<0D><0A>"
1773087017701,NMEA0183,UDP:localhost:10110,GPALL,"$GPRMC,201017.69,A,4004.4415,N,01500.8608,E,1.9,74.4,090326,2.5,W*70<0D><0A>"
1773087017701,NMEA0183,UDP:localhost:10110,GPALL,"$GPGGA,201017.69,4004.4415,N,01500.8608,E,1,11,1.6,10.0,M,0.0,M,,*66<0D><0A>"
1773087017701,NMEA0183,UDP:localhost:10110,GPALL,"$GPGSA,A,3,4,1,6,23,24,22,14,3,2,17,5,,1.6,1.7,0.9*39<0D><0A>"
1773087017701,NMEA0183,UDP:localhost:10110,GPALL,"$GPGSV,3,1,11,4,7,126,50,1,67,151,45,6,27,183,26,23,28,217,44*7E<0D><0A>"
1773087017701,NMEA0183,UDP:localhost:10110,GPALL,"$GPGSV,3,2,11,24,25,96,41,22,12,5,40,14,19,277,41,3,67,312,27*7C<0D><0A>"
1773087017701,NMEA0183,UDP:localhost:10110,GPALL,"$GPGSV,3,3,11,2,47,7,34,17,54,210,25,5,22,335,24*4D<0D><0A>"
1773087017701,NMEA0183,UDP:localhost:10110,GPALL,"$GPVTG,74.4,T,76.9,M,1.9,N,3.5,K,A*22<0D><0A>"
1773087017701,NMEA0183,UDP:localhost:10110,IIALL,"$IIHDG,74.4,,,2.5,W*00<0D><0A>"
1773087017701,NMEA0183,UDP:localhost:10110,VHALL,"$VHW,74.4,T,76.9,M,1.9,N,3.5,K*54<0D><0A>"
1773087017701,NMEA0183,UDP:localhost:10110,MTALL,"$MTW,18.0,C*1A<0D><0A>"
1773087017701,NMEA0183,UDP:localhost:10110,WIALL,"$WIMWV,147.6,R,11.6,N,A*11<0D><0A>"
1773087017701,NMEA0183,UDP:localhost:10110,WIALL,"$WIMWV,147.6,R,11.6,N,A*11<0D><0A>"
1773087018702,NMEA0183,UDP:localhost:10110,GPALL,"$GPRMC,201018.69,A,4004.4416,N,01500.8615,E,1.8,74.6,090326,2.5,W*73<0D><0A>"
1773087018703,NMEA0183,UDP:localhost:10110,GPALL,"$GPGGA,201018.69,4004.4416,N,01500.8615,E,1,10,1.7,10.0,M,0.0,M,,*66<0D><0A>"
1773087018703,NMEA0183,UDP:localhost:10110,GPALL,"$GPGSA,A,3,28,6,7,9,27,23,2,3,13,31,,,1.4,1.7,0.9*0F<0D><0A>"
1773087018703,NMEA0183,UDP:localhost:10110,GPALL,"$GPGSV,3,1,10,28,54,43,45,6,13,140,21,7,35,15,50,9,75,332,21*4F<0D><0A>"
1773087018703,NMEA0183,UDP:localhost:10110,GPALL,"$GPGSV,3,2,10,27,84,311,25,23,20,215,21,2,3,199,40,3,87,92,25*76<0D><0A>"
1773087018703,NMEA0183,UDP:localhost:10110,GPALL,"$GPGSV,3,3,10,13,25,47,47,31,64,237,45*4A<0D><0A>"
1773087018703,NMEA0183,UDP:localhost:10110,GPALL,"$GPVTG,74.6,T,77.1,M,1.8,N,3.4,K,A*29<0D><0A>"
1773087018703,NMEA0183,UDP:localhost:10110,IIALL,"$IIHDG,74.6,,,2.5,W*02<0D><0A>"
1773087018703,NMEA0183,UDP:localhost:10110,VHALL,"$VHW,74.6,T,77.1,M,1.8,N,3.4,K*5F<0D><0A>"
1773087018703,NMEA0183,UDP:localhost:10110,MTALL,"$MTW,18.0,C*1A<0D><0A>"
1773087018703,NMEA0183,UDP:localhost:10110,WIALL,"$WIMWV,142.8,R,11.7,N,A*1B<0D><0A>"
1773087018703,NMEA0183,UDP:localhost:10110,WIALL,"$WIMWV,142.8,R,11.7,N,A*1B<0D><0A>"
1773087019702,NMEA0183,UDP:localhost:10110,GPALL,"$GPRMC,201019.70,A,4004.4418,N,01500.8621,E,1.9,75.5,090326,2.5,W*70<0D><0A>"
1773087019702,NMEA0183,UDP:localhost:10110,GPALL,"$GPGGA,201019.70,4004.4418,N,01500.8621,E,1,12,1.9,10.0,M,0.0,M,,*6A<0D><0A>"
1773087019702,NMEA0183,UDP:localhost:10110,GPALL,"$GPGSA,A,3,20,3,2,31,6,10,17,28,16,30,18,7,1.5,0.9,0.9*36<0D><0A>"
1773087019703,NMEA0183,UDP:localhost:10110,GPALL,"$GPGSV,3,1,12,20,58,192,44,3,70,353,21,2,43,192,30,31,24,160,39*7A<0D><0A>"
1773087019703,NMEA0183,UDP:localhost:10110,GPALL,"$GPGSV,3,2,12,6,90,108,20,10,89,335,35,17,5,74,35,28,42,209,38*46<0D><0A>"
1773087019703,NMEA0183,UDP:localhost:10110,GPALL,"$GPGSV,3,3,12,16,31,113,48,30,30,177,21,18,21,163,20,7,5,204,30*79<0D><0A>"
1773087019703,NMEA0183,UDP:localhost:10110,GPALL,"$GPVTG,75.5,T,78.0,M,1.9,N,3.5,K,A*25<0D><0A>"
1773087019703,NMEA0183,UDP:localhost:10110,IIALL,"$IIHDG,75.5,,,2.5,W*00<0D><0A>"
1773087019703,NMEA0183,UDP:localhost:10110,VHALL,"$VHW,75.5,T,78.0,M,1.9,N,3.5,K*53<0D><0A>"
1773087019703,NMEA0183,UDP:localhost:10110,MTALL,"$MTW,18.0,C*1A<0D><0A>"
1773087019703,NMEA0183,UDP:localhost:10110,WIALL,"$WIMWV,164.0,R,10.5,N,A*14<0D><0A>"
1773087019703,NMEA0183,UDP:localhost:10110,WIALL,"$WIMWV,164.0,R,10.5,N,A*14<0D><0A>"
1773087020705,NMEA0183,UDP:localhost:10110,GPALL,"$GPRMC,201020.70,A,4004.4419,N,01500.8628,E,1.7,77.2,090326,2.5,W*79<0D><0A>"
1773087020705,NMEA0183,UDP:localhost:10110,GPALL,"$GPGGA,201020.70,4004.4419,N,01500.8628,E,1,12,1.9,10.0,M,0.0,M,,*68<0D><0A>"
1773087020705,NMEA0183,UDP:localhost:10110,GPALL,"$GPGSA,A,3,31,15,26,12,13,14,19,17,18,29,16,2,1.4,1.2,2.4*0D<0D><0A>"
1773087020705,NMEA0183,UDP:localhost:10110,GPALL,"$GPGSV,3,1,12,31,61,79,28,15,59,103,40,26,26,182,45,12,83,40,36*74<0D><0A>"
1773087020705,NMEA0183,UDP:localhost:10110,GPALL,"$GPGSV,3,2,12,13,54,209,26,14,80,338,41,19,68,49,35,17,24,52,44*7D<0D><0A>"
1773087020705,NMEA0183,UDP:localhost:10110,GPALL,"$GPGSV,3,3,12,18,80,86,21,29,86,50,37,16,21,54,38,2,45,92,29*4F<0D><0A>"
1773087020705,NMEA0183,UDP:localhost:10110,GPALL,"$GPVTG,77.2,T,79.7,M,1.7,N,3.1,K,A*2C<0D><0A>"
1773087020705,NMEA0183,UDP:localhost:10110,IIALL,"$IIHDG,77.2,,,2.5,W*05<0D><0A>"
1773087020705,NMEA0183,UDP:localhost:10110,VHALL,"$VHW,77.2,T,79.7,M,1.7,N,3.1,K*5A<0D><0A>"
1773087020705,NMEA0183,UDP:localhost:10110,MTALL,"$MTW,18.0,C*1A<0D><0A>"
1773087020705,NMEA0183,UDP:localhost:10110,WIALL,"$WIMWV,171.7,R,10.3,N,A*11<0D><0A>"
1773087020706,NMEA0183,UDP:localhost:10110,WIALL,"$WIMWV,171.7,R,10.3,N,A*11<0D><0A>"
1773087021704,NMEA0183,UDP:localhost:10110,GPALL,"$GPRMC,201021.70,A,4004.4420,N,01500.8634,E,1.9,76.5,090326,2.5,W*77<0D><0A>"
1773087021705,NMEA0183,UDP:localhost:10110,GPALL,"$GPGGA,201021.70,4004.4420,N,01500.8634,E,1,05,1.9,10.0,M,0.0,M,,*68<0D><0A>"
1773087021705,NMEA0183,UDP:localhost:10110,GPALL,"$GPGSA,A,3,28,20,6,8,30,,,,,,,,1.2,2.0,1.9*3E<0D><0A>"
1773087021705,NMEA0183,UDP:localhost:10110,GPALL,"$GPGSV,2,1,5,28,58,247,32,20,80,218,20,6,24,141,20,8,75,220,35*41<0D><0A>"
1773087021705,NMEA0183,UDP:localhost:10110,GPALL,"$GPGSV,2,2,5,30,58,142,21*76<0D><0A>"
1773087021705,NMEA0183,UDP:localhost:10110,GPALL,"$GPVTG,76.5,T,79.0,M,1.9,N,3.4,K,A*26<0D><0A>"
1773087021705,NMEA0183,UDP:localhost:10110,IIALL,"$IIHDG,76.5,,,2.5,W*03<0D><0A>"
1773087021705,NMEA0183,UDP:localhost:10110,VHALL,"$VHW,76.5,T,79.0,M,1.9,N,3.4,K*50<0D><0A>"
1773087021705,NMEA0183,UDP:localhost:10110,MTALL,"$MTW,17.9,C*1C<0D><0A>"
1773087021705,NMEA0183,UDP:localhost:10110,WIALL,"$WIMWV,159.3,R,11.6,N,A*1B<0D><0A>"
1773087021705,NMEA0183,UDP:localhost:10110,WIALL,"$WIMWV,159.3,R,11.6,N,A*1B<0D><0A>"
1773087022706,NMEA0183,UDP:localhost:10110,GPALL,"$GPRMC,201022.70,A,4004.4421,N,01500.8640,E,2.0,76.1,090326,2.5,W*78<0D><0A>"
1773087022706,NMEA0183,UDP:localhost:10110,GPALL,"$GPGGA,201022.70,4004.4421,N,01500.8640,E,1,07,1.9,10.0,M,0.0,M,,*6B<0D><0A>"
1773087022706,NMEA0183,UDP:localhost:10110,GPALL,"$GPGSA,A,3,19,9,12,26,22,20,15,,,,,,2.1,1.7,2.0*05<0D><0A>"
1773087022706,NMEA0183,UDP:localhost:10110,GPALL,"$GPGSV,2,1,7,19,11,68,32,9,89,171,25,12,16,207,24,26,27,175,29*4C<0D><0A>"
1773087022706,NMEA0183,UDP:localhost:10110,GPALL,"$GPGSV,2,2,7,22,62,347,39,20,9,270,22,15,15,291,26*40<0D><0A>"
1773087022706,NMEA0183,UDP:localhost:10110,GPALL,"$GPVTG,76.1,T,78.6,M,2.0,N,3.6,K,A*2D<0D><0A>"
1773087022706,NMEA0183,UDP:localhost:10110,IIALL,"$IIHDG,76.1,,,2.5,W*07<0D><0A>"
1773087022706,NMEA0183,UDP:localhost:10110,VHALL,"$VHW,76.1,T,78.6,M,2.0,N,3.6,K*5B<0D><0A>"
1773087022706,NMEA0183,UDP:localhost:10110,MTALL,"$MTW,17.9,C*1C<0D><0A>"
1773087022706,NMEA0183,UDP:localhost:10110,WIALL,"$WIMWV,158.4,R,10.8,N,A*12<0D><0A>"
1773087022706,NMEA0183,UDP:localhost:10110,WIALL,"$WIMWV,158.4,R,10.8,N,A*12<0D><0A>"
1773087023707,NMEA0183,UDP:localhost:10110,GPALL,"$GPRMC,201023.70,A,4004.4422,N,01500.8647,E,1.9,74.7,090326,2.5,W*73<0D><0A>"
1773087023707,NMEA0183,UDP:localhost:10110,GPALL,"$GPGGA,201023.70,4004.4422,N,01500.8647,E,1,08,1.1,10.0,M,0.0,M,,*69<0D><0A>"
1773087023707,NMEA0183,UDP:localhost:10110,GPALL,"$GPGSA,A,3,1,20,28,17,13,11,24,15,,,,,2.1,1.4,1.8*02<0D><0A>"
1773087023707,NMEA0183,UDP:localhost:10110,GPALL,"$GPGSV,2,1,8,1,79,100,30,20,45,346,38,28,80,99,36,17,23,293,37*4A<0D><0A>"
1773087023707,NMEA0183,UDP:localhost:10110,GPALL,"$GPGSV,2,2,8,13,80,15,35,11,46,237,37,24,22,335,50,15,4,43,25*7F<0D><0A>"
1773087023707,NMEA0183,UDP:localhost:10110,GPALL,"$GPVTG,74.7,T,77.2,M,1.9,N,3.6,K,A*28<0D><0A>"
1773087023707,NMEA0183,UDP:localhost:10110,IIALL,"$IIHDG,74.7,,,2.5,W*03<0D><0A>"
1773087023707,NMEA0183,UDP:localhost:10110,VHALL,"$VHW,74.7,T,77.2,M,1.9,N,3.6,K*5E<0D><0A>"
1773087023707,NMEA0183,UDP:localhost:10110,MTALL,"$MTW,18.0,C*1A<0D><0A>"
1773087023708,NMEA0183,UDP:localhost:10110,WIALL,"$WIMWV,146.7,R,11.0,N,A*17<0D><0A>"
1773087023708,NMEA0183,UDP:localhost:10110,WIALL,"$WIMWV,146.7,R,11.0,N,A*17<0D><0A>"
1773087025432,NMEA0183,UDP:localhost:10110,GPALL,"$GPRMC,201024.70,A,4004.4424,N,01500.8654,E,2.1,75.4,090326,2.5,W*79<0D><0A>"
1773087025432,NMEA0183,UDP:localhost:10110,GPALL,"$GPGGA,201024.70,4004.4424,N,01500.8654,E,1,10,1.1,10.0,M,0.0,M,,*63<0D><0A>"
1773087025433,NMEA0183,UDP:localhost:10110,GPALL,"$GPGSA,A,3,21,3,20,2,18,24,4,26,29,9,,,2.0,0.9,1.1*34<0D><0A>"
1773087025433,NMEA0183,UDP:localhost:10110,GPALL,"$GPGSV,3,1,10,21,62,50,26,3,68,299,30,20,53,312,49,2,30,180,46*43<0D><0A>"
1773087025433,NMEA0183,UDP:localhost:10110,GPALL,"$GPGSV,3,2,10,18,47,24,31,24,70,291,49,4,48,134,39,26,19,233,29*70<0D><0A>"
1773087025433,NMEA0183,UDP:localhost:10110,GPALL,"$GPGSV,3,3,10,29,12,157,27,9,66,88,40*7B<0D><0A>"
1773087025433,NMEA0183,UDP:localhost:10110,GPALL,"$GPVTG,75.4,T,77.9,M,2.1,N,3.8,K,A*24<0D><0A>"
1773087025433,NMEA0183,UDP:localhost:10110,IIALL,"$IIHDG,75.4,,,2.5,W*01<0D><0A>"
1773087025433,NMEA0183,UDP:localhost:10110,VHALL,"$VHW,75.4,T,77.9,M,2.1,N,3.8,K*52<0D><0A>"
1773087025433,NMEA0183,UDP:localhost:10110,MTALL,"$MTW,18.0,C*1A<0D><0A>"
1773087025433,NMEA0183,UDP:localhost:10110,WIALL,"$WIMWV,176.3,R,10.9,N,A*18<0D><0A>"
1773087025433,NMEA0183,UDP:localhost:10110,WIALL,"$WIMWV,176.3,R,10.9,N,A*18<0D><0A>"
