timestamp,type,id,message
2026-03-09T21:48:04.372Z,NMEA0183,,"$GPRMC,204804.36,A,4007.2100,N,01505.4357,E,10.0,29.5,090326,2.5,W*47"
2026-03-09T21:48:04.372Z,NMEA0183,,"$GPGGA,204804.36,4007.2100,N,01505.4357,E,1,05,0.9,10.0,M,0.0,M,,*6A"
2026-03-09T21:48:04.372Z,NMEA0183,,"$GPGSA,A,3,28,5,14,19,21,,,,,,,,2.2,1.2,1.9*08"
2026-03-09T21:48:04.373Z,NMEA0183,,"$GPGSV,2,1,5,28,83,153,37,5,1,284,26,14,72,49,23,19,45,315,29*7A"
2026-03-09T21:48:04.373Z,NMEA0183,,"$GPGSV,2,2,5,21,74,43,24*4D"
2026-03-09T21:48:04.373Z,NMEA0183,,"$GPVTG,29.5,T,32.0,M,10.0,N,18.6,K,A*22"
2026-03-09T21:48:04.373Z,NMEA0183,,"$IIHDG,29.5,,,2.5,W*09"
2026-03-09T21:48:04.374Z,NMEA0183,,"$VHW,29.5,T,32.0,M,10.0,N,18.6,K*54"
2026-03-09T21:48:04.374Z,NMEA0183,,"$MTW,17.5,C*10"
2026-03-09T21:48:04.374Z,NMEA0183,,"$WIMWV,99.1,R,10.0,N,A*23"
2026-03-09T21:48:04.374Z,NMEA0183,,"$WIMWV,99.1,R,10.0,N,A*23"
2026-03-09T21:48:05.379Z,NMEA0183,,"$GPRMC,204805.37,A,4007.2124,N,01505.4375,E,10.1,31.2,090326,2.5,W*4E"
2026-03-09T21:48:05.380Z,NMEA0183,,"$GPGGA,204805.37,4007.2124,N,01505.4375,E,1,09,1.8,10.0,M,0.0,M,,*60"
2026-03-09T21:48:05.380Z,NMEA0183,,"$GPGSA,A,3,23,32,18,25,21,19,30,22,26,,,,1.1,1.6,1.1*37"
2026-03-09T21:48:05.380Z,NMEA0183,,"$GPGSV,3,1,9,23,24,177,32,32,8,243,21,18,36,109,34,25,54,182,21*77"
2026-03-09T21:48:05.380Z,NMEA0183,,"$GPGSV,3,2,9,21,32,30,40,19,30,49,30,30,35,17,40,22,90,275,44*7F"
2026-03-09T21:48:05.380Z,NMEA0183,,"$GPGSV,3,3,9,26,21,10,35*40"
2026-03-09T21:48:05.381Z,NMEA0183,,"$GPVTG,31.2,T,33.7,M,10.1,N,18.6,K,A*2B"
2026-03-09T21:48:05.381Z,NMEA0183,,"$IIHDG,31.2,,,2.5,W*07"
2026-03-09T21:48:05.381Z,NMEA0183,,"$VHW,31.2,T,33.7,M,10.1,N,18.6,K*5D"
2026-03-09T21:48:05.381Z,NMEA0183,,"$MTW,17.5,C*10"
2026-03-09T21:48:05.382Z,NMEA0183,,"$WIMWV,118.6,R,9.3,N,A*27"
2026-03-09T21:48:05.382Z,NMEA0183,,"$WIMWV,118.6,R,9.3,N,A*27"
2026-03-09T21:48:06.374Z,NMEA0183,,"$GPRMC,204806.37,A,4007.2148,N,01505.4394,E,10.0,32.6,090326,2.5,W*4E"
2026-03-09T21:48:06.374Z,NMEA0183,,"$GPGGA,204806.37,4007.2148,N,01505.4394,E,1,11,1.5,10.0,M,0.0,M,,*62"
2026-03-09T21:48:06.374Z,NMEA0183,,"$GPGSA,A,3,1,28,3,2,27,7,12,16,30,31,20,,1.9,1.1,1.1*35"
2026-03-09T21:48:06.374Z,NMEA0183,,"$GPGSV,3,1,11,1,56,169,36,28,43,26,35,3,9,223,50,2,48,288,35*4B"
2026-03-09T21:48:06.375Z,NMEA0183,,"$GPGSV,3,2,11,27,23,253,39,7,75,314,49,12,75,33,49,16,82,18,34*43"
2026-03-09T21:48:06.375Z,NMEA0183,,"$GPGSV,3,3,11,30,55,262,37,31,24,168,41,20,22,347,48*48"
2026-03-09T21:48:06.375Z,NMEA0183,,"$GPVTG,32.6,T,35.1,M,10.0,N,18.6,K,A*2D"
2026-03-09T21:48:06.375Z,NMEA0183,,"$IIHDG,32.6,,,2.5,W*00"
2026-03-09T21:48:06.375Z,NMEA0183,,"$VHW,32.6,T,35.1,M,10.0,N,18.6,K*5B"
2026-03-09T21:48:06.376Z,NMEA0183,,"$MTW,17.5,C*10"
2026-03-09T21:48:06.376Z,NMEA0183,,"$WIMWV,119.1,R,8.0,N,A*23"
2026-03-09T21:48:06.376Z,NMEA0183,,"$WIMWV,119.1,R,8.0,N,A*23"
2026-03-09T21:48:07.373Z,NMEA0183,,"$GPRMC,204807.37,A,4007.2172,N,01505.4414,E,9.9,31.5,090326,2.5,W*78"
2026-03-09T21:48:07.373Z,NMEA0183,,"$GPGGA,204807.37,4007.2172,N,01505.4414,E,1,06,1.5,10.0,M,0.0,M,,*63"
2026-03-09T21:48:07.373Z,NMEA0183,,"$GPGSA,A,3,12,16,27,6,9,18,,,,,,,2.0,0.7,1.7*36"
2026-03-09T21:48:07.373Z,NMEA0183,,"$GPGSV,2,1,6,12,76,162,35,16,59,325,49,27,49,211,49,6,84,96,25*4A"
2026-03-09T21:48:07.374Z,NMEA0183,,"$GPGSV,2,2,6,9,22,70,42,18,27,239,30*40"
2026-03-09T21:48:07.374Z,NMEA0183,,"$GPVTG,31.5,T,34.0,M,9.9,N,18.3,K,A*19"
2026-03-09T21:48:07.374Z,NMEA0183,,"$IIHDG,31.5,,,2.5,W*00"
2026-03-09T21:48:07.374Z,NMEA0183,,"$VHW,31.5,T,34.0,M,9.9,N,18.3,K*6F"
2026-03-09T21:48:07.374Z,NMEA0183,,"$MTW,17.5,C*10"
2026-03-09T21:48:07.374Z,NMEA0183,,"$WIMWV,98.6,R,8.0,N,A*1C"
2026-03-09T21:48:07.374Z,NMEA0183,,"$WIMWV,98.6,R,8.0,N,A*1C"
2026-03-09T21:48:08.376Z,NMEA0183,,"$GPRMC,204808.37,A,4007.2195,N,01505.4433,E,9.7,29.9,090326,2.5,W*70"
2026-03-09T21:48:08.377Z,NMEA0183,,"$GPGGA,204808.37,4007.2195,N,01505.4433,E,1,11,1.6,10.0,M,0.0,M,,*65"
2026-03-09T21:48:08.377Z,NMEA0183,,"$GPGSA,A,3,20,32,17,10,21,6,5,14,13,28,19,,1.7,1.3,1.7*31"
2026-03-09T21:48:08.377Z,NMEA0183,,"$GPGSV,3,1,11,20,66,23,44,32,14,220,45,17,90,266,49,10,63,52,23*7F"
2026-03-09T21:48:08.377Z,NMEA0183,,"$GPGSV,3,2,11,21,19,59,34,6,11,288,24,5,86,103,26,14,57,168,42*49"
2026-03-09T21:48:08.378Z,NMEA0183,,"$GPGSV,3,3,11,13,68,138,47,28,64,13,26,19,82,322,42*75"
2026-03-09T21:48:08.378Z,NMEA0183,,"$GPVTG,29.9,T,32.4,M,9.7,N,17.9,K,A*15"
2026-03-09T21:48:08.378Z,NMEA0183,,"$IIHDG,29.9,,,2.5,W*05"
2026-03-09T21:48:08.378Z,NMEA0183,,"$VHW,29.9,T,32.4,M,9.7,N,17.9,K*63"
2026-03-09T21:48:08.379Z,NMEA0183,,"$MTW,17.5,C*10"
2026-03-09T21:48:08.379Z,NMEA0183,,"$WIMWV,100.9,R,11.7,N,A*1C"
2026-03-09T21:48:08.379Z,NMEA0183,,"$WIMWV,100.9,R,11.7,N,A*1C"
2026-03-09T21:48:09.377Z,NMEA0183,,"$GPRMC,204809.37,A,4007.2218,N,01505.4450,E,9.8,30.1,090326,2.5,W*7D"
2026-03-09T21:48:09.377Z,NMEA0183,,"$GPGGA,204809.37,4007.2218,N,01505.4450,E,1,06,1.3,10.0,M,0.0,M,,*64"
2026-03-09T21:48:09.377Z,NMEA0183,,"$GPGSA,A,3,11,2,17,20,31,26,,,,,,,2.3,1.3,1.5*05"
2026-03-09T21:48:09.377Z,NMEA0183,,"$GPGSV,2,1,6,11,72,121,41,2,4,222,50,17,10,226,35,20,25,65,49*73"
2026-03-09T21:48:09.378Z,NMEA0183,,"$GPGSV,2,2,6,31,67,283,50,26,50,159,46*4E"
2026-03-09T21:48:09.378Z,NMEA0183,,"$GPVTG,30.1,T,32.6,M,9.8,N,18.1,K,A*1F"
2026-03-09T21:48:09.378Z,NMEA0183,,"$IIHDG,30.1,,,2.5,W*05"
2026-03-09T21:48:09.378Z,NMEA0183,,"$VHW,30.1,T,32.6,M,9.8,N,18.1,K*69"
2026-03-09T21:48:09.378Z,NMEA0183,,"$MTW,17.5,C*10"
2026-03-09T21:48:09.379Z,NMEA0183,,"$WIMWV,104.5,R,11.8,N,A*1B"
2026-03-09T21:48:09.379Z,NMEA0183,,"$WIMWV,104.5,R,11.8,N,A*1B"
2026-03-09T21:48:10.378Z,NMEA0183,,"$GPRMC,204810.37,A,4007.2242,N,01505.4468,E,9.9,29.8,090326,2.5,W*71"
2026-03-09T21:48:10.378Z,NMEA0183,,"$GPGGA,204810.37,4007.2242,N,01505.4468,E,1,11,1.4,10.0,M,0.0,M,,*69"
2026-03-09T21:48:10.378Z,NMEA0183,,"$GPGSA,A,3,26,29,3,11,15,10,31,22,23,4,12,,1.8,1.7,1.6*37"
2026-03-09T21:48:10.379Z,NMEA0183,,"$GPGSV,3,1,11,26,76,324,36,29,36,305,46,3,4,350,21,11,14,323,31*73"
2026-03-09T21:48:10.379Z,NMEA0183,,"$GPGSV,3,2,11,15,80,225,21,10,13,84,43,31,54,247,40,22,17,330,40*4E"
2026-03-09T21:48:10.379Z,NMEA0183,,"$GPGSV,3,3,11,23,30,18,26,4,73,169,32,12,81,68,43*7A"
2026-03-09T21:48:10.379Z,NMEA0183,,"$GPVTG,29.8,T,32.3,M,9.9,N,18.3,K,A*18"
2026-03-09T21:48:10.379Z,NMEA0183,,"$IIHDG,29.8,,,2.5,W*04"
2026-03-09T21:48:10.380Z,NMEA0183,,"$VHW,29.8,T,32.3,M,9.9,N,18.3,K*6E"
2026-03-09T21:48:10.380Z,NMEA0183,,"$MTW,17.5,C*10"
2026-03-09T21:48:10.380Z,NMEA0183,,"$WIMWV,117.9,R,12.9,N,A*17"
2026-03-09T21:48:10.381Z,NMEA0183,,"$WIMWV,117.9,R,12.9,N,A*17"
2026-03-09T21:48:11.379Z,NMEA0183,,"$GPRMC,204811.37,A,4007.2266,N,01505.4486,E,9.7,30.6,090326,2.5,W*7E"
2026-03-09T21:48:11.379Z,NMEA0183,,"$GPGGA,204811.37,4007.2266,N,01505.4486,E,1,08,1.3,10.0,M,0.0,M,,*61"
2026-03-09T21:48:11.379Z,NMEA0183,,"$GPGSA,A,3,11,9,2,28,22,17,12,30,,,,,1.2,1.5,2.2*32"
2026-03-09T21:48:11.380Z,NMEA0183,,"$GPGSV,2,1,8,11,19,342,46,9,64,204,24,2,43,116,45,28,66,158,41*47"
2026-03-09T21:48:11.380Z,NMEA0183,,"$GPGSV,2,2,8,22,86,54,32,17,42,125,26,12,61,160,42,30,70,291,41*73"
2026-03-09T21:48:11.380Z,NMEA0183,,"$GPVTG,30.6,T,33.1,M,9.7,N,17.9,K,A*16"
2026-03-09T21:48:11.380Z,NMEA0183,,"$IIHDG,30.6,,,2.5,W*02"
2026-03-09T21:48:11.380Z,NMEA0183,,"$VHW,30.6,T,33.1,M,9.7,N,17.9,K*60"
2026-03-09T21:48:11.381Z,NMEA0183,,"$MTW,17.4,C*11"
2026-03-09T21:48:11.381Z,NMEA0183,,"$WIMWV,96.6,R,12.4,N,A*2D"
2026-03-09T21:48:11.381Z,NMEA0183,,"$WIMWV,96.6,R,12.4,N,A*2D"
2026-03-09T21:48:12.380Z,NMEA0183,,"$GPRMC,204812.37,A,4007.2289,N,01505.4504,E,9.8,31.5,090326,2.5,W*7A"
2026-03-09T21:48:12.380Z,NMEA0183,,"$GPGGA,204812.37,4007.2289,N,01505.4504,E,1,06,1.3,10.0,M,0.0,M,,*66"
2026-03-09T21:48:12.380Z,NMEA0183,,"$GPGSA,A,3,8,14,27,3,23,32,,,,,,,1.4,1.1,2.4*3A"
2026-03-09T21:48:12.381Z,NMEA0183,,"$GPGSV,2,1,6,8,21,8,27,14,47,295,34,27,66,296,29,3,52,48,20*7C"
2026-03-09T21:48:12.381Z,NMEA0183,,"$GPGSV,2,2,6,23,16,208,47,32,47,75,48*7C"
2026-03-09T21:48:12.381Z,NMEA0183,,"$GPVTG,31.5,T,34.0,M,9.8,N,18.1,K,A*1A"
2026-03-09T21:48:12.381Z,NMEA0183,,"$IIHDG,31.5,,,2.5,W*00"
2026-03-09T21:48:12.381Z,NMEA0183,,"$VHW,31.5,T,34.0,M,9.8,N,18.1,K*6C"
2026-03-09T21:48:12.381Z,NMEA0183,,"$MTW,17.4,C*11"
2026-03-09T21:48:12.382Z,NMEA0183,,"$WIMWV,99.8,R,9.7,N,A*15"
2026-03-09T21:48:12.382Z,NMEA0183,,"$WIMWV,99.8,R,9.7,N,A*15"
2026-03-09T21:48:13.381Z,NMEA0183,,"$GPRMC,204813.37,A,4007.2312,N,01505.4522,E,9.6,30.4,090326,2.5,W*72"
2026-03-09T21:48:13.381Z,NMEA0183,,"$GPGGA,204813.37,4007.2312,N,01505.4522,E,1,06,1.4,10.0,M,0.0,M,,*67"
2026-03-09T21:48:13.381Z,NMEA0183,,"$GPGSA,A,3,7,32,29,28,24,1,,,,,,,2.3,1.6,1.4*31"
2026-03-09T21:48:13.382Z,NMEA0183,,"$GPGSV,2,1,6,7,2,49,50,32,84,13,20,29,18,258,44,28,43,23,50*78"
2026-03-09T21:48:13.382Z,NMEA0183,,"$GPGSV,2,2,6,24,76,333,45,1,23,268,44*76"
2026-03-09T21:48:13.382Z,NMEA0183,,"$GPVTG,30.4,T,32.9,M,9.6,N,17.9,K,A*1C"
2026-03-09T21:48:13.382Z,NMEA0183,,"$IIHDG,30.4,,,2.5,W*00"
2026-03-09T21:48:13.382Z,NMEA0183,,"$VHW,30.4,T,32.9,M,9.6,N,17.9,K*6A"
2026-03-09T21:48:13.382Z,NMEA0183,,"$MTW,17.4,C*11"
2026-03-09T21:48:13.383Z,NMEA0183,,"$WIMWV,91.0,R,9.6,N,A*14"
2026-03-09T21:48:13.383Z,NMEA0183,,"$WIMWV,91.0,R,9.6,N,A*14"
2026-03-09T21:48:14.382Z,NMEA0183,,"$GPRMC,204814.37,A,4007.2335,N,01505.4540,E,9.7,31.9,090326,2.5,W*79"
2026-03-09T21:48:14.382Z,NMEA0183,,"$GPGGA,204814.37,4007.2335,N,01505.4540,E,1,12,1.9,10.0,M,0.0,M,,*69"
2026-03-09T21:48:14.382Z,NMEA0183,,"$GPGSA,A,3,27,23,7,29,25,13,24,1,15,4,19,5,1.3,1.3,1.3*37"
2026-03-09T21:48:14.383Z,NMEA0183,,"$GPGSV,3,1,12,27,89,268,38,23,54,253,38,7,81,105,44,29,32,354,33*46"
2026-03-09T21:48:14.383Z,NMEA0183,,"$GPGSV,3,2,12,25,4,37,48,13,12,206,22,24,39,8,34,1,63,190,44*4A"
2026-03-09T21:48:14.383Z,NMEA0183,,"$GPGSV,3,3,12,15,9,64,50,4,88,42,21,19,13,100,30,5,34,114,30*4C"
2026-03-09T21:48:14.383Z,NMEA0183,,"$GPVTG,31.9,T,34.4,M,9.7,N,18.0,K,A*1C"
2026-03-09T21:48:14.383Z,NMEA0183,,"$IIHDG,31.9,,,2.5,W*0C"
2026-03-09T21:48:14.384Z,NMEA0183,,"$VHW,31.9,T,34.4,M,9.7,N,18.0,K*6A"
2026-03-09T21:48:14.384Z,NMEA0183,,"$MTW,17.4,C*11"
2026-03-09T21:48:14.384Z,NMEA0183,,"$WIMWV,97.0,R,7.9,N,A*13"
2026-03-09T21:48:14.384Z,NMEA0183,,"$WIMWV,97.0,R,7.9,N,A*13"
2026-03-09T21:48:15.383Z,NMEA0183,,"$GPRMC,204815.38,A,4007.2358,N,01505.4559,E,9.9,31.2,090326,2.5,W*71"
2026-03-09T21:48:15.383Z,NMEA0183,,"$GPGGA,204815.38,4007.2358,N,01505.4559,E,1,10,0.8,10.0,M,0.0,M,,*66"
2026-03-09T21:48:15.384Z,NMEA0183,,"$GPGSA,A,3,23,12,19,5,6,14,25,13,8,1,,,1.7,0.6,1.6*35"
2026-03-09T21:48:15.384Z,NMEA0183,,"$GPGSV,3,1,10,23,75,269,20,12,2,60,34,19,39,101,40,5,20,329,26*4B"
2026-03-09T21:48:15.384Z,NMEA0183,,"$GPGSV,3,2,10,6,75,114,40,14,26,82,20,25,41,205,25,13,18,262,46*79"
2026-03-09T21:48:15.384Z,NMEA0183,,"$GPGSV,3,3,10,8,22,183,29,1,27,186,25*7D"
2026-03-09T21:48:15.384Z,NMEA0183,,"$GPVTG,31.2,T,33.7,M,9.9,N,18.3,K,A*1E"
2026-03-09T21:48:15.384Z,NMEA0183,,"$IIHDG,31.2,,,2.5,W*07"
2026-03-09T21:48:15.385Z,NMEA0183,,"$VHW,31.2,T,33.7,M,9.9,N,18.3,K*68"
2026-03-09T21:48:15.385Z,NMEA0183,,"$MTW,17.4,C*11"
2026-03-09T21:48:15.385Z,NMEA0183,,"$WIMWV,122.4,R,9.2,N,A*2D"
2026-03-09T21:48:15.385Z,NMEA0183,,"$WIMWV,122.4,R,9.2,N,A*2D"
2026-03-09T21:48:16.384Z,NMEA0183,,"$GPRMC,204816.38,A,4007.2382,N,01505.4577,E,9.9,32.4,090326,2.5,W*7C"
2026-03-09T21:48:16.385Z,NMEA0183,,"$GPGGA,204816.38,4007.2382,N,01505.4577,E,1,06,1.0,10.0,M,0.0,M,,*60"
2026-03-09T21:48:16.385Z,NMEA0183,,"$GPGSA,A,3,6,8,29,12,20,10,,,,,,,1.9,1.6,1.8*31"
2026-03-09T21:48:16.385Z,NMEA0183,,"$GPGSV,2,1,6,6,15,324,41,8,70,207,25,29,82,274,43,12,19,40,32*7A"
2026-03-09T21:48:16.385Z,NMEA0183,,"$GPGSV,2,2,6,20,27,299,31,10,56,70,47*7E"
2026-03-09T21:48:16.385Z,NMEA0183,,"$GPVTG,32.4,T,34.9,M,9.9,N,18.2,K,A*13"
2026-03-09T21:48:16.385Z,NMEA0183,,"$IIHDG,32.4,,,2.5,W*02"
2026-03-09T21:48:16.386Z,NMEA0183,,"$VHW,32.4,T,34.9,M,9.9,N,18.2,K*65"
2026-03-09T21:48:16.386Z,NMEA0183,,"$MTW,17.4,C*11"
2026-03-09T21:48:16.386Z,NMEA0183,,"$WIMWV,91.0,R,10.3,N,A*29"
2026-03-09T21:48:16.386Z,NMEA0183,,"$WIMWV,91.0,R,10.3,N,A*29"
2026-03-09T21:48:17.385Z,NMEA0183,,"$GPRMC,204817.38,A,4007.2405,N,01505.4597,E,9.8,33.8,090326,2.5,W*77"
2026-03-09T21:48:17.385Z,NMEA0183,,"$GPGGA,204817.38,4007.2405,N,01505.4597,E,1,05,1.6,10.0,M,0.0,M,,*62"
2026-03-09T21:48:17.385Z,NMEA0183,,"$GPGSA,A,3,30,6,15,2,17,,,,,,,,1.1,1.0,2.1*35"
2026-03-09T21:48:17.386Z,NMEA0183,,"$GPGSV,2,1,5,30,46,154,43,6,83,94,39,15,3,346,32,2,7,213,25*76"
2026-03-09T21:48:17.386Z,NMEA0183,,"$GPGSV,2,2,5,17,4,215,25*4F"
2026-03-09T21:48:17.386Z,NMEA0183,,"$GPVTG,33.8,T,36.3,M,9.8,N,18.2,K,A*17"
2026-03-09T21:48:17.386Z,NMEA0183,,"$IIHDG,33.8,,,2.5,W*0F"
2026-03-09T21:48:17.386Z,NMEA0183,,"$VHW,33.8,T,36.3,M,9.8,N,18.2,K*61"
2026-03-09T21:48:17.387Z,NMEA0183,,"$MTW,17.5,C*10"
2026-03-09T21:48:17.387Z,NMEA0183,,"$WIMWV,94.7,R,11.2,N,A*2B"
2026-03-09T21:48:17.393Z,NMEA0183,,"$WIMWV,94.7,R,11.2,N,A*2B"
2026-03-09T21:48:18.387Z,NMEA0183,,"$GPRMC,204818.38,A,4007.2427,N,01505.4616,E,9.8,34.5,090326,2.5,W*78"
2026-03-09T21:48:18.387Z,NMEA0183,,"$GPGGA,204818.38,4007.2427,N,01505.4616,E,1,09,1.2,10.0,M,0.0,M,,*6F"
2026-03-09T21:48:18.387Z,NMEA0183,,"$GPGSA,A,3,14,18,29,2,1,13,25,16,23,,,,1.6,0.8,1.1*3A"
2026-03-09T21:48:18.387Z,NMEA0183,,"$GPGSV,3,1,9,14,64,50,47,18,29,160,47,29,73,354,37,2,69,215,47*44"
2026-03-09T21:48:18.387Z,NMEA0183,,"$GPGSV,3,2,9,1,10,179,47,13,56,272,23,25,5,317,27,16,16,145,47*4B"
2026-03-09T21:48:18.388Z,NMEA0183,,"$GPGSV,3,3,9,23,66,276,24*74"
2026-03-09T21:48:18.388Z,NMEA0183,,"$GPVTG,34.5,T,37.0,M,9.8,N,18.1,K,A*1C"
2026-03-09T21:48:18.388Z,NMEA0183,,"$IIHDG,34.5,,,2.5,W*05"
2026-03-09T21:48:18.388Z,NMEA0183,,"$VHW,34.5,T,37.0,M,9.8,N,18.1,K*6A"
2026-03-09T21:48:18.389Z,NMEA0183,,"$MTW,17.5,C*10"
2026-03-09T21:48:18.389Z,NMEA0183,,"$WIMWV,110.0,R,9.3,N,A*29"
2026-03-09T21:48:18.389Z,NMEA0183,,"$WIMWV,110.0,R,9.3,N,A*29"
2026-03-09T21:48:19.388Z,NMEA0183,,"$GPRMC,204819.38,A,4007.2450,N,01505.4637,E,9.9,35.3,090326,2.5,W*7C"
2026-03-09T21:48:19.388Z,NMEA0183,,"$GPGGA,204819.38,4007.2450,N,01505.4637,E,1,12,1.1,10.0,M,0.0,M,,*64"
2026-03-09T21:48:19.389Z,NMEA0183,,"$GPGSA,A,3,15,28,5,17,27,1,31,18,12,19,9,20,1.8,1.4,1.4*09"
2026-03-09T21:48:19.389Z,NMEA0183,,"$GPGSV,3,1,12,15,21,249,42,28,64,224,38,5,65,168,32,17,4,55,21*48"
2026-03-09T21:48:19.389Z,NMEA0183,,"$GPGSV,3,2,12,27,72,356,35,1,35,195,33,31,46,69,33,18,65,323,33*70"
2026-03-09T21:48:19.389Z,NMEA0183,,"$GPGSV,3,3,12,12,83,280,39,19,16,271,24,9,75,98,39,20,47,250,44*79"
2026-03-09T21:48:19.390Z,NMEA0183,,"$GPVTG,35.3,T,37.8,M,9.9,N,18.4,K,A*17"
2026-03-09T21:48:19.390Z,NMEA0183,,"$IIHDG,35.3,,,2.5,W*02"
2026-03-09T21:48:19.390Z,NMEA0183,,"$VHW,35.3,T,37.8,M,9.9,N,18.4,K*61"
2026-03-09T21:48:19.390Z,NMEA0183,,"$MTW,17.5,C*10"
2026-03-09T21:48:19.391Z,NMEA0183,,"$WIMWV,101.9,R,9.3,N,A*20"
2026-03-09T21:48:19.391Z,NMEA0183,,"$WIMWV,101.9,R,9.3,N,A*20"
2026-03-09T21:48:20.389Z,NMEA0183,,"$GPRMC,204820.38,A,4007.2472,N,01505.4657,E,9.8,34.4,090326,2.5,W*77"
2026-03-09T21:48:20.389Z,NMEA0183,,"$GPGGA,204820.38,4007.2472,N,01505.4657,E,1,10,1.0,10.0,M,0.0,M,,*6B"
2026-03-09T21:48:20.390Z,NMEA0183,,"$GPGSA,A,3,22,27,10,11,25,26,6,21,23,32,,,1.7,1.0,1.0*06"
2026-03-09T21:48:20.390Z,NMEA0183,,"$GPGSV,3,1,10,22,32,26,46,27,41,171,32,10,58,55,46,11,85,343,38*77"
2026-03-09T21:48:20.390Z,NMEA0183,,"$GPGSV,3,2,10,25,89,303,38,26,46,140,44,6,45,129,35,21,44,274,37*4A"
2026-03-09T21:48:20.390Z,NMEA0183,,"$GPGSV,3,3,10,23,51,121,44,32,67,113,22*7C"
2026-03-09T21:48:20.390Z,NMEA0183,,"$GPVTG,34.4,T,36.9,M,9.8,N,18.1,K,A*15"
2026-03-09T21:48:20.391Z,NMEA0183,,"$IIHDG,34.4,,,2.5,W*04"
2026-03-09T21:48:20.391Z,NMEA0183,,"$VHW,34.4,T,36.9,M,9.8,N,18.1,K*63"
2026-03-09T21:48:20.391Z,NMEA0183,,"$MTW,17.5,C*10"
2026-03-09T21:48:20.391Z,NMEA0183,,"$WIMWV,98.4,R,9.7,N,A*18"
2026-03-09T21:48:20.392Z,NMEA0183,,"$WIMWV,98.4,R,9.7,N,A*18"
2026-03-09T21:48:21.391Z,NMEA0183,,"$GPRMC,204821.38,A,4007.2495,N,01505.4677,E,10.0,34.3,090326,2.5,W*4A"
2026-03-09T21:48:21.391Z,NMEA0183,,"$GPGGA,204821.38,4007.2495,N,01505.4677,E,1,09,1.7,10.0,M,0.0,M,,*6E"
2026-03-09T21:48:21.391Z,NMEA0183,,"$GPGSA,A,3,32,30,27,11,1,8,14,18,21,,,,2.2,1.8,2.3*3B"
2026-03-09T21:48:21.391Z,NMEA0183,,"$GPGSV,3,1,9,32,79,46,44,30,24,81,39,27,17,66,25,11,73,213,24*7F"
2026-03-09T21:48:21.392Z,NMEA0183,,"$GPGSV,3,2,9,1,7,3,49,8,66,211,44,14,23,44,44,18,20,252,23*48"
2026-03-09T21:48:21.392Z,NMEA0183,,"$GPGSV,3,3,9,21,73,257,43*70"
2026-03-09T21:48:21.392Z,NMEA0183,,"$GPVTG,34.3,T,36.8,M,10.0,N,18.4,K,A*26"
2026-03-09T21:48:21.392Z,NMEA0183,,"$IIHDG,34.3,,,2.5,W*03"
2026-03-09T21:48:21.393Z,NMEA0183,,"$VHW,34.3,T,36.8,M,10.0,N,18.4,K*50"
2026-03-09T21:48:21.393Z,NMEA0183,,"$MTW,17.6,C*13"
2026-03-09T21:48:21.393Z,NMEA0183,,"$WIMWV,116.4,R,9.3,N,A*2B"
2026-03-09T21:48:21.393Z,NMEA0183,,"$WIMWV,116.4,R,9.3,N,A*2B"
2026-03-09T21:48:22.392Z,NMEA0183,,"$GPRMC,204822.38,A,4007.2518,N,01505.4698,E,9.9,33.0,090326,2.5,W*79"
2026-03-09T21:48:22.392Z,NMEA0183,,"$GPGGA,204822.38,4007.2518,N,01505.4698,E,1,11,1.0,10.0,M,0.0,M,,*66"
2026-03-09T21:48:22.392Z,NMEA0183,,"$GPGSA,A,3,4,19,12,22,8,28,31,9,17,7,18,,1.8,0.9,1.1*3C"
2026-03-09T21:48:22.393Z,NMEA0183,,"$GPGSV,3,1,11,4,26,205,25,19,34,140,28,12,85,316,46,22,90,328,42*45"
2026-03-09T21:48:22.393Z,NMEA0183,,"$GPGSV,3,2,11,8,87,9,23,28,27,26,32,31,3,70,41,9,39,123,22*4D"
2026-03-09T21:48:22.393Z,NMEA0183,,"$GPGSV,3,3,11,17,75,243,35,7,90,133,39,18,83,286,48*79"
2026-03-09T21:48:22.393Z,NMEA0183,,"$GPVTG,33.0,T,35.5,M,9.9,N,18.4,K,A*1D"
2026-03-09T21:48:22.393Z,NMEA0183,,"$IIHDG,33.0,,,2.5,W*07"
2026-03-09T21:48:22.394Z,NMEA0183,,"$VHW,33.0,T,35.5,M,9.9,N,18.4,K*6B"
2026-03-09T21:48:22.394Z,NMEA0183,,"$MTW,17.5,C*10"
2026-03-09T21:48:22.394Z,NMEA0183,,"$WIMWV,105.0,R,9.0,N,A*2E"
2026-03-09T21:48:22.394Z,NMEA0183,,"$WIMWV,105.0,R,9.0,N,A*2E"
2026-03-09T21:48:23.393Z,NMEA0183,,"$GPRMC,204823.39,A,4007.2541,N,01505.4717,E,10.1,32.2,090326,2.5,W*40"
2026-03-09T21:48:23.393Z,NMEA0183,,"$GPGGA,204823.39,4007.2541,N,01505.4717,E,1,06,2.0,10.0,M,0.0,M,,*69"
2026-03-09T21:48:23.394Z,NMEA0183,,"$GPGSA,A,3,8,30,26,21,4,28,,,,,,,1.8,1.4,1.7*3A"
2026-03-09T21:48:23.394Z,NMEA0183,,"$GPGSV,2,1,6,8,84,91,39,30,22,47,26,26,56,281,21,21,32,11,27*46"
2026-03-09T21:48:23.394Z,NMEA0183,,"$GPGSV,2,2,6,4,47,348,47,28,27,167,39*71"
2026-03-09T21:48:23.394Z,NMEA0183,,"$GPVTG,32.2,T,34.7,M,10.1,N,18.7,K,A*2E"
2026-03-09T21:48:23.394Z,NMEA0183,,"$IIHDG,32.2,,,2.5,W*04"
2026-03-09T21:48:23.395Z,NMEA0183,,"$VHW,32.2,T,34.7,M,10.1,N,18.7,K*58"
2026-03-09T21:48:23.395Z,NMEA0183,,"$MTW,17.6,C*13"
2026-03-09T21:48:23.395Z,NMEA0183,,"$WIMWV,115.9,R,10.5,N,A*1B"
2026-03-09T21:48:23.395Z,NMEA0183,,"$WIMWV,115.9,R,10.5,N,A*1B"
2026-03-09T21:48:24.394Z,NMEA0183,,"$GPRMC,204824.39,A,4007.2564,N,01505.4737,E,10.3,32.8,090326,2.5,W*4A"
2026-03-09T21:48:24.395Z,NMEA0183,,"$GPGGA,204824.39,4007.2564,N,01505.4737,E,1,09,1.8,10.0,M,0.0,M,,*6F"
2026-03-09T21:48:24.395Z,NMEA0183,,"$GPGSA,A,3,20,5,6,29,28,22,10,17,8,,,,1.8,0.9,0.9*04"
2026-03-09T21:48:24.395Z,NMEA0183,,"$GPGSV,3,1,9,20,11,258,39,5,20,245,39,6,44,324,35,29,31,257,50*42"
2026-03-09T21:48:24.395Z,NMEA0183,,"$GPGSV,3,2,9,28,71,58,25,22,52,77,45,10,62,176,21,17,79,36,22*7A"
2026-03-09T21:48:24.395Z,NMEA0183,,"$GPGSV,3,3,9,8,75,168,43*42"
2026-03-09T21:48:24.396Z,NMEA0183,,"$GPVTG,32.8,T,35.3,M,10.3,N,19.0,K,A*25"
2026-03-09T21:48:24.396Z,NMEA0183,,"$IIHDG,32.8,,,2.5,W*0E"
2026-03-09T21:48:24.396Z,NMEA0183,,"$VHW,32.8,T,35.3,M,10.3,N,19.0,K*53"
2026-03-09T21:48:24.396Z,NMEA0183,,"$MTW,17.6,C*13"
2026-03-09T21:48:24.396Z,NMEA0183,,"$WIMWV,99.1,R,7.8,N,A*1D"
2026-03-09T21:48:24.397Z,NMEA0183,,"$WIMWV,99.1,R,7.8,N,A*1D"
2026-03-09T21:48:25.396Z,NMEA0183,,"$GPRMC,204825.39,A,4007.2588,N,01505.4757,E,10.1,32.6,090326,2.5,W*43"
2026-03-09T21:48:25.396Z,NMEA0183,,"$GPGGA,204825.39,4007.2588,N,01505.4757,E,1,10,1.4,10.0,M,0.0,M,,*6E"
2026-03-09T21:48:25.396Z,NMEA0183,,"$GPGSA,A,3,30,9,4,32,21,31,26,2,20,6,,,1.5,0.6,1.3*3E"
2026-03-09T21:48:25.396Z,NMEA0183,,"$GPGSV,3,1,10,30,45,144,43,9,34,267,31,4,54,311,40,32,38,34,28*44"
2026-03-09T21:48:25.396Z,NMEA0183,,"$GPGSV,3,2,10,21,28,254,47,31,3,341,29,26,62,22,49,2,8,188,25*7D"
2026-03-09T21:48:25.397Z,NMEA0183,,"$GPGSV,3,3,10,20,55,99,35,6,9,209,23*49"
2026-03-09T21:48:25.397Z,NMEA0183,,"$GPVTG,32.6,T,35.1,M,10.1,N,18.7,K,A*2D"
2026-03-09T21:48:25.397Z,NMEA0183,,"$IIHDG,32.6,,,2.5,W*00"
2026-03-09T21:48:25.397Z,NMEA0183,,"$VHW,32.6,T,35.1,M,10.1,N,18.7,K*5B"
2026-03-09T21:48:25.397Z,NMEA0183,,"$MTW,17.5,C*10"
2026-03-09T21:48:25.398Z,NMEA0183,,"$WIMWV,106.7,R,9.2,N,A*28"
2026-03-09T21:48:25.398Z,NMEA0183,,"$WIMWV,106.7,R,9.2,N,A*28"
2026-03-09T21:48:26.397Z,NMEA0183,,"$GPRMC,204826.39,A,4007.2612,N,01505.4777,E,10.1,31.2,090326,2.5,W*45"
2026-03-09T21:48:26.397Z,NMEA0183,,"$GPGGA,204826.39,4007.2612,N,01505.4777,E,1,12,1.8,10.0,M,0.0,M,,*61"
2026-03-09T21:48:26.397Z,NMEA0183,,"$GPGSA,A,3,27,2,9,10,14,11,13,26,30,16,3,28,1.5,1.2,1.8*0D"
2026-03-09T21:48:26.397Z,NMEA0183,,"$GPGSV,3,1,12,27,75,158,24,2,11,200,37,9,90,186,24,10,32,79,41*43"
2026-03-09T21:48:26.398Z,NMEA0183,,"$GPGSV,3,2,12,14,31,87,32,11,2,91,49,13,15,154,39,26,53,65,42*7E"
2026-03-09T21:48:26.398Z,NMEA0183,,"$GPGSV,3,3,12,30,66,25,50,16,64,12,37,3,58,127,41,28,55,312,27*49"
2026-03-09T21:48:26.398Z,NMEA0183,,"$GPVTG,31.2,T,33.7,M,10.1,N,18.8,K,A*25"
2026-03-09T21:48:26.398Z,NMEA0183,,"$IIHDG,31.2,,,2.5,W*07"
2026-03-09T21:48:26.398Z,NMEA0183,,"$VHW,31.2,T,33.7,M,10.1,N,18.8,K*53"
2026-03-09T21:48:26.399Z,NMEA0183,,"$MTW,17.5,C*10"
2026-03-09T21:48:26.399Z,NMEA0183,,"$WIMWV,107.6,R,7.5,N,A*21"
2026-03-09T21:48:26.399Z,NMEA0183,,"$WIMWV,107.6,R,7.5,N,A*21"
2026-03-09T21:48:27.398Z,NMEA0183,,"$GPRMC,204827.39,A,4007.2636,N,01505.4796,E,10.0,30.4,090326,2.5,W*4B"
2026-03-09T21:48:27.398Z,NMEA0183,,"$GPGGA,204827.39,4007.2636,N,01505.4796,E,1,07,2.0,10.0,M,0.0,M,,*66"
2026-03-09T21:48:27.398Z,NMEA0183,,"$GPGSA,A,3,5,7,32,11,23,9,19,,,,,,2.4,1.2,1.0*05"
2026-03-09T21:48:27.399Z,NMEA0183,,"$GPGSV,2,1,7,5,46,321,30,7,47,346,27,32,4,28,30,11,41,33,47*73"
2026-03-09T21:48:27.399Z,NMEA0183,,"$GPGSV,2,2,7,23,21,95,30,9,35,75,26,19,47,202,39*4B"
2026-03-09T21:48:27.399Z,NMEA0183,,"$GPVTG,30.4,T,32.9,M,10.0,N,18.4,K,A*20"
2026-03-09T21:48:27.399Z,NMEA0183,,"$IIHDG,30.4,,,2.5,W*00"
2026-03-09T21:48:27.399Z,NMEA0183,,"$VHW,30.4,T,32.9,M,10.0,N,18.4,K*56"
2026-03-09T21:48:27.400Z,NMEA0183,,"$MTW,17.5,C*10"
2026-03-09T21:48:27.400Z,NMEA0183,,"$WIMWV,93.7,R,6.9,N,A*11"
2026-03-09T21:48:27.400Z,NMEA0183,,"$WIMWV,93.7,R,6.9,N,A*11"
2026-03-09T21:48:28.399Z,NMEA0183,,"$GPRMC,204828.39,A,4007.2660,N,01505.4814,E,9.9,30.0,090326,2.5,W*77"
2026-03-09T21:48:28.400Z,NMEA0183,,"$GPGGA,204828.39,4007.2660,N,01505.4814,E,1,10,0.9,10.0,M,0.0,M,,*62"
2026-03-09T21:48:28.400Z,NMEA0183,,"$GPGSA,A,3,10,23,27,16,25,24,15,29,18,32,,,2.3,1.6,1.9*38"
2026-03-09T21:48:28.400Z,NMEA0183,,"$GPGSV,3,1,10,10,73,354,50,23,55,357,26,27,25,146,40,16,68,324,42*73"
2026-03-09T21:48:28.400Z,NMEA0183,,"$GPGSV,3,2,10,25,17,347,30,24,53,250,36,15,63,95,20,29,50,49,28*7F"
2026-03-09T21:48:28.400Z,NMEA0183,,"$GPGSV,3,3,10,18,49,0,48,32,55,297,49*70"
2026-03-09T21:48:28.400Z,NMEA0183,,"$GPVTG,30.0,T,32.5,M,9.9,N,18.3,K,A*1E"
2026-03-09T21:48:28.401Z,NMEA0183,,"$IIHDG,30.0,,,2.5,W*04"
2026-03-09T21:48:28.401Z,NMEA0183,,"$VHW,30.0,T,32.5,M,9.9,N,18.3,K*68"
2026-03-09T21:48:28.401Z,NMEA0183,,"$MTW,17.4,C*11"
2026-03-09T21:48:28.401Z,NMEA0183,,"$WIMWV,107.3,R,7.2,N,A*23"
2026-03-09T21:48:28.402Z,NMEA0183,,"$WIMWV,107.3,R,7.2,N,A*23"
2026-03-09T21:48:29.401Z,NMEA0183,,"$GPRMC,204829.39,A,4007.2684,N,01505.4832,E,9.9,29.2,090326,2.5,W*72"
2026-03-09T21:48:29.401Z,NMEA0183,,"$GPGGA,204829.39,4007.2684,N,01505.4832,E,1,12,1.7,10.0,M,0.0,M,,*60"
2026-03-09T21:48:29.401Z,NMEA0183,,"$GPGSA,A,3,26,21,25,15,10,11,28,27,14,31,32,4,1.1,1.9,1.1*02"
2026-03-09T21:48:29.401Z,NMEA0183,,"$GPGSV,3,1,12,26,70,209,50,21,75,275,29,25,2,254,47,15,29,232,23*47"
2026-03-09T21:48:29.401Z,NMEA0183,,"$GPGSV,3,2,12,10,1,96,29,11,39,345,43,28,69,84,30,27,28,292,47*4F"
2026-03-09T21:48:29.402Z,NMEA0183,,"$GPGSV,3,3,12,14,24,200,25,31,7,5,31,32,7,132,35,4,16,284,49*4E"
2026-03-09T21:48:29.402Z,NMEA0183,,"$GPVTG,29.2,T,31.7,M,9.9,N,18.3,K,A*15"
2026-03-09T21:48:29.402Z,NMEA0183,,"$IIHDG,29.2,,,2.5,W*0E"
2026-03-09T21:48:29.402Z,NMEA0183,,"$VHW,29.2,T,31.7,M,9.9,N,18.3,K*63"
2026-03-09T21:48:29.402Z,NMEA0183,,"$MTW,17.4,C*11"
2026-03-09T21:48:29.403Z,NMEA0183,,"$WIMWV,108.8,R,9.1,N,A*2A"
2026-03-09T21:48:29.403Z,NMEA0183,,"$WIMWV,108.8,R,9.1,N,A*2A"
2026-03-09T21:48:30.402Z,NMEA0183,,"$GPRMC,204830.39,A,4007.2708,N,01505.4850,E,9.9,30.1,090326,2.5,W*70"
2026-03-09T21:48:30.402Z,NMEA0183,,"$GPGGA,204830.39,4007.2708,N,01505.4850,E,1,08,1.6,10.0,M,0.0,M,,*63"
2026-03-09T21:48:30.402Z,NMEA0183,,"$GPGSA,A,3,5,22,27,28,9,12,31,4,,,,,1.5,0.6,1.7*00"
2026-03-09T21:48:30.402Z,NMEA0183,,"$GPGSV,2,1,8,5,14,270,49,22,13,209,28,27,69,70,24,28,47,273,27*48"
2026-03-09T21:48:30.403Z,NMEA0183,,"$GPGSV,2,2,8,9,78,174,22,12,58,198,38,31,65,39,50,4,52,113,38*75"
2026-03-09T21:48:30.403Z,NMEA0183,,"$GPVTG,30.1,T,32.6,M,9.9,N,18.3,K,A*1C"
2026-03-09T21:48:30.403Z,NMEA0183,,"$IIHDG,30.1,,,2.5,W*05"
2026-03-09T21:48:30.403Z,NMEA0183,,"$VHW,30.1,T,32.6,M,9.9,N,18.3,K*6A"
2026-03-09T21:48:30.403Z,NMEA0183,,"$MTW,17.4,C*11"
2026-03-09T21:48:30.404Z,NMEA0183,,"$WIMWV,110.0,R,7.9,N,A*2D"
2026-03-09T21:48:30.404Z,NMEA0183,,"$WIMWV,110.0,R,7.9,N,A*2D"
2026-03-09T21:48:31.404Z,NMEA0183,,"$GPRMC,204831.40,A,4007.2731,N,01505.4868,E,9.8,28.6,090326,2.5,W*71"
2026-03-09T21:48:31.404Z,NMEA0183,,"$GPGGA,204831.40,4007.2731,N,01505.4868,E,1,12,1.8,10.0,M,0.0,M,,*68"
2026-03-09T21:48:31.404Z,NMEA0183,,"$GPGSA,A,3,32,14,21,13,26,7,3,31,16,9,25,2,2.4,0.8,1.4*35"
2026-03-09T21:48:31.404Z,NMEA0183,,"$GPGSV,3,1,12,32,36,296,44,14,18,234,48,21,46,244,45,13,21,218,23*7D"
2026-03-09T21:48:31.404Z,NMEA0183,,"$GPGSV,3,2,12,26,52,28,37,7,0,290,21,3,68,310,31,31,52,166,37*74"
2026-03-09T21:48:31.405Z,NMEA0183,,"$GPGSV,3,3,12,16,64,134,38,9,44,169,31,25,30,161,27,2,78,178,48*7F"
2026-03-09T21:48:31.405Z,NMEA0183,,"$GPVTG,28.6,T,31.1,M,9.8,N,18.2,K,A*16"
2026-03-09T21:48:31.405Z,NMEA0183,,"$IIHDG,28.6,,,2.5,W*0B"
2026-03-09T21:48:31.405Z,NMEA0183,,"$VHW,28.6,T,31.1,M,9.8,N,18.2,K*60"
2026-03-09T21:48:31.405Z,NMEA0183,,"$MTW,17.3,C*16"
2026-03-09T21:48:31.406Z,NMEA0183,,"$WIMWV,93.3,R,8.0,N,A*12"
2026-03-09T21:48:31.406Z,NMEA0183,,"$WIMWV,93.3,R,8.0,N,A*12"
2026-03-09T21:48:32.404Z,NMEA0183,,"$GPRMC,204832.40,A,4007.2755,N,01505.4885,E,9.7,29.8,090326,2.5,W*73"
2026-03-09T21:48:32.404Z,NMEA0183,,"$GPGGA,204832.40,4007.2755,N,01505.4885,E,1,08,1.1,10.0,M,0.0,M,,*68"
2026-03-09T21:48:32.404Z,NMEA0183,,"$GPGSA,A,3,24,28,5,17,13,30,26,23,,,,,2.4,1.8,1.8*0F"
2026-03-09T21:48:32.405Z,NMEA0183,,"$GPGSV,2,1,8,24,0,124,33,28,14,235,30,5,42,197,48,17,10,206,27*4D"
2026-03-09T21:48:32.405Z,NMEA0183,,"$GPGSV,2,2,8,13,78,345,50,30,55,80,33,26,87,20,38,23,57,326,28*4C"
2026-03-09T21:48:32.405Z,NMEA0183,,"$GPVTG,29.8,T,32.3,M,9.7,N,18.0,K,A*15"
2026-03-09T21:48:32.405Z,NMEA0183,,"$IIHDG,29.8,,,2.5,W*04"
2026-03-09T21:48:32.406Z,NMEA0183,,"$VHW,29.8,T,32.3,M,9.7,N,18.0,K*63"
2026-03-09T21:48:32.406Z,NMEA0183,,"$MTW,17.3,C*16"
2026-03-09T21:48:32.406Z,NMEA0183,,"$WIMWV,90.8,R,6.7,N,A*13"
2026-03-09T21:48:32.407Z,NMEA0183,,"$WIMWV,90.8,R,6.7,N,A*13"
2026-03-09T21:48:33.404Z,NMEA0183,,"$GPRMC,204833.40,A,4007.2779,N,01505.4902,E,9.8,29.2,090326,2.5,W*77"
2026-03-09T21:48:33.405Z,NMEA0183,,"$GPGGA,204833.40,4007.2779,N,01505.4902,E,1,08,1.2,10.0,M,0.0,M,,*6A"
2026-03-09T21:48:33.405Z,NMEA0183,,"$GPGSA,A,3,11,21,2,13,31,32,9,15,,,,,2.2,1.5,0.9*32"
2026-03-09T21:48:33.405Z,NMEA0183,,"$GPGSV,2,1,8,11,16,116,43,21,64,246,38,2,4,320,47,13,58,147,37*43"
2026-03-09T21:48:33.405Z,NMEA0183,,"$GPGSV,2,2,8,31,67,0,36,32,26,122,47,9,53,309,37,15,81,275,29*77"
2026-03-09T21:48:33.405Z,NMEA0183,,"$GPVTG,29.2,T,31.7,M,9.8,N,18.2,K,A*15"
2026-03-09T21:48:33.405Z,NMEA0183,,"$IIHDG,29.2,,,2.5,W*0E"
2026-03-09T21:48:33.405Z,NMEA0183,,"$VHW,29.2,T,31.7,M,9.8,N,18.2,K*63"
2026-03-09T21:48:33.405Z,NMEA0183,,"$MTW,17.3,C*16"
2026-03-09T21:48:33.405Z,NMEA0183,,"$WIMWV,94.4,R,7.0,N,A*1D"
2026-03-09T21:48:33.406Z,NMEA0183,,"$WIMWV,94.4,R,7.0,N,A*1D"
2026-03-09T21:48:34.406Z,NMEA0183,,"$GPRMC,204834.40,A,4007.2803,N,01505.4920,E,9.7,30.0,090326,2.5,W*77"
2026-03-09T21:48:34.406Z,NMEA0183,,"$GPGGA,204834.40,4007.2803,N,01505.4920,E,1,05,1.4,10.0,M,0.0,M,,*64"
2026-03-09T21:48:34.406Z,NMEA0183,,"$GPGSA,A,3,6,11,21,2,4,,,,,,,,1.8,1.8,0.9*08"
2026-03-09T21:48:34.407Z,NMEA0183,,"$GPGSV,2,1,5,6,28,26,27,11,79,215,44,21,71,256,26,2,1,167,46*4B"
2026-03-09T21:48:34.407Z,NMEA0183,,"$GPGSV,2,2,5,4,1,257,40*7D"
2026-03-09T21:48:34.407Z,NMEA0183,,"$GPVTG,30.0,T,32.5,M,9.7,N,18.0,K,A*13"
2026-03-09T21:48:34.407Z,NMEA0183,,"$IIHDG,30.0,,,2.5,W*04"
2026-03-09T21:48:34.407Z,NMEA0183,,"$VHW,30.0,T,32.5,M,9.7,N,18.0,K*65"
2026-03-09T21:48:34.408Z,NMEA0183,,"$MTW,17.3,C*16"
2026-03-09T21:48:34.408Z,NMEA0183,,"$WIMWV,94.6,R,8.8,N,A*18"
2026-03-09T21:48:34.408Z,NMEA0183,,"$WIMWV,94.6,R,8.8,N,A*18"
2026-03-09T21:48:35.408Z,NMEA0183,,"$GPRMC,204835.40,A,4007.2826,N,01505.4937,E,9.8,29.1,090326,2.5,W*71"
2026-03-09T21:48:35.408Z,NMEA0183,,"$GPGGA,204835.40,4007.2826,N,01505.4937,E,1,11,1.3,10.0,M,0.0,M,,*66"
2026-03-09T21:48:35.408Z,NMEA0183,,"$GPGSA,A,3,18,2,6,28,26,27,19,11,22,4,17,,2.1,2.0,2.1*0C"
2026-03-09T21:48:35.408Z,NMEA0183,,"$GPGSV,3,1,11,18,65,78,40,2,57,313,33,6,25,267,43,28,20,95,44*7A"
2026-03-09T21:48:35.409Z,NMEA0183,,"$GPGSV,3,2,11,26,50,154,25,27,0,14,42,19,71,251,34,11,57,314,24*75"
2026-03-09T21:48:35.409Z,NMEA0183,,"$GPGSV,3,3,11,22,37,144,43,4,55,273,38,17,59,309,30*71"
2026-03-09T21:48:35.409Z,NMEA0183,,"$GPVTG,29.1,T,31.6,M,9.8,N,18.2,K,A*17"
2026-03-09T21:48:35.409Z,NMEA0183,,"$IIHDG,29.1,,,2.5,W*0D"
2026-03-09T21:48:35.409Z,NMEA0183,,"$VHW,29.1,T,31.6,M,9.8,N,18.2,K*61"
2026-03-09T21:48:35.410Z,NMEA0183,,"$MTW,17.4,C*11"
2026-03-09T21:48:35.410Z,NMEA0183,,"$WIMWV,92.4,R,9.1,N,A*14"
2026-03-09T21:48:35.410Z,NMEA0183,,"$WIMWV,92.4,R,9.1,N,A*14"
2026-03-09T21:48:36.408Z,NMEA0183,,"$GPRMC,204836.40,A,4007.2850,N,01505.4955,E,9.7,30.2,090326,2.5,W*73"
2026-03-09T21:48:36.408Z,NMEA0183,,"$GPGGA,204836.40,4007.2850,N,01505.4955,E,1,06,0.9,10.0,M,0.0,M,,*6D"
2026-03-09T21:48:36.409Z,NMEA0183,,"$GPGSA,A,3,21,22,28,6,18,24,,,,,,,2.3,1.9,1.7*0D"
2026-03-09T21:48:36.409Z,NMEA0183,,"$GPGSV,2,1,6,21,89,171,33,22,5,294,48,28,90,243,39,6,3,356,20*74"
2026-03-09T21:48:36.409Z,NMEA0183,,"$GPGSV,2,2,6,18,33,65,48,24,52,6,49*73"
2026-03-09T21:48:36.409Z,NMEA0183,,"$GPVTG,30.2,T,32.7,M,9.7,N,18.0,K,A*13"
2026-03-09T21:48:36.409Z,NMEA0183,,"$IIHDG,30.2,,,2.5,W*06"
2026-03-09T21:48:36.410Z,NMEA0183,,"$VHW,30.2,T,32.7,M,9.7,N,18.0,K*65"
2026-03-09T21:48:36.410Z,NMEA0183,,"$MTW,17.3,C*16"
2026-03-09T21:48:36.410Z,NMEA0183,,"$WIMWV,96.8,R,7.0,N,A*13"
2026-03-09T21:48:36.410Z,NMEA0183,,"$WIMWV,96.8,R,7.0,N,A*13"
2026-03-09T21:48:37.409Z,NMEA0183,,"$GPRMC,204837.40,A,4007.2873,N,01505.4972,E,9.6,28.8,090326,2.5,W*74"
2026-03-09T21:48:37.410Z,NMEA0183,,"$GPGGA,204837.40,4007.2873,N,01505.4972,E,1,10,1.5,10.0,M,0.0,M,,*62"
2026-03-09T21:48:37.410Z,NMEA0183,,"$GPGSA,A,3,25,1,32,28,6,24,27,3,14,8,,,1.7,1.3,2.0*32"
2026-03-09T21:48:37.410Z,NMEA0183,,"$GPGSV,3,1,10,25,84,56,50,1,89,174,25,32,25,208,42,28,61,248,26*7F"
2026-03-09T21:48:37.410Z,NMEA0183,,"$GPGSV,3,2,10,6,66,279,32,24,45,269,26,27,47,310,28,3,13,225,30*75"
2026-03-09T21:48:37.410Z,NMEA0183,,"$GPGSV,3,3,10,14,33,44,31,8,0,65,50*71"
2026-03-09T21:48:37.411Z,NMEA0183,,"$GPVTG,28.8,T,31.3,M,9.6,N,17.7,K,A*1E"
2026-03-09T21:48:37.411Z,NMEA0183,,"$IIHDG,28.8,,,2.5,W*05"
2026-03-09T21:48:37.411Z,NMEA0183,,"$VHW,28.8,T,31.3,M,9.6,N,17.7,K*68"
2026-03-09T21:48:37.411Z,NMEA0183,,"$MTW,17.3,C*16"
2026-03-09T21:48:37.412Z,NMEA0183,,"$WIMWV,111.7,R,10.5,N,A*11"
2026-03-09T21:48:37.412Z,NMEA0183,,"$WIMWV,111.7,R,10.5,N,A*11"
2026-03-09T21:48:38.411Z,NMEA0183,,"$GPRMC,204838.40,A,4007.2896,N,01505.4989,E,9.7,29.6,090326,2.5,W*7A"
2026-03-09T21:48:38.411Z,NMEA0183,,"$GPGGA,204838.40,4007.2896,N,01505.4989,E,1,09,1.0,10.0,M,0.0,M,,*6F"
2026-03-09T21:48:38.412Z,NMEA0183,,"$GPGSA,A,3,7,2,28,22,15,18,31,20,4,,,,2.1,1.8,1.9*06"
2026-03-09T21:48:38.412Z,NMEA0183,,"$GPGSV,3,1,9,7,78,75,47,2,69,37,42,28,67,201,49,22,55,78,37*7A"
2026-03-09T21:48:38.412Z,NMEA0183,,"$GPGSV,3,2,9,15,83,270,36,18,21,304,26,31,25,224,43,20,16,337,37*47"
2026-03-09T21:48:38.412Z,NMEA0183,,"$GPGSV,3,3,9,4,26,217,38*4F"
2026-03-09T21:48:38.412Z,NMEA0183,,"$GPVTG,29.6,T,32.1,M,9.7,N,18.0,K,A*19"
2026-03-09T21:48:38.413Z,NMEA0183,,"$IIHDG,29.6,,,2.5,W*0A"
2026-03-09T21:48:38.413Z,NMEA0183,,"$VHW,29.6,T,32.1,M,9.7,N,18.0,K*6F"
2026-03-09T21:48:38.413Z,NMEA0183,,"$MTW,17.3,C*16"
2026-03-09T21:48:38.413Z,NMEA0183,,"$WIMWV,110.2,R,7.0,N,A*26"
2026-03-09T21:48:38.414Z,NMEA0183,,"$WIMWV,110.2,R,7.0,N,A*26"
2026-03-09T21:48:39.413Z,NMEA0183,,"$GPRMC,204839.41,A,4007.2920,N,01505.5007,E,9.9,30.9,090326,2.5,W*71"
2026-03-09T21:48:39.413Z,NMEA0183,,"$GPGGA,204839.41,4007.2920,N,01505.5007,E,1,10,2.0,10.0,M,0.0,M,,*66"
2026-03-09T21:48:39.413Z,NMEA0183,,"$GPGSA,A,3,29,17,27,9,10,25,7,14,12,5,,,2.4,1.5,0.8*0B"
2026-03-09T21:48:39.414Z,NMEA0183,,"$GPGSV,3,1,10,29,73,324,50,17,30,85,34,27,22,332,38,9,23,98,38*44"
2026-03-09T21:48:39.414Z,NMEA0183,,"$GPGSV,3,2,10,10,18,130,37,25,58,196,20,7,88,129,21,14,35,80,29*7F"
2026-03-09T21:48:39.414Z,NMEA0183,,"$GPGSV,3,3,10,12,8,340,26,5,46,290,34*7B"
2026-03-09T21:48:39.414Z,NMEA0183,,"$GPVTG,30.9,T,33.4,M,9.9,N,18.4,K,A*10"
2026-03-09T21:48:39.414Z,NMEA0183,,"$IIHDG,30.9,,,2.5,W*0D"
2026-03-09T21:48:39.415Z,NMEA0183,,"$VHW,30.9,T,33.4,M,9.9,N,18.4,K*66"
2026-03-09T21:48:39.415Z,NMEA0183,,"$MTW,17.3,C*16"
2026-03-09T21:48:39.415Z,NMEA0183,,"$WIMWV,113.6,R,8.8,N,A*26"
2026-03-09T21:48:39.415Z,NMEA0183,,"$WIMWV,113.6,R,8.8,N,A*26"
2026-03-09T21:48:40.415Z,NMEA0183,,"$GPRMC,204840.41,A,4007.2943,N,01505.5025,E,9.8,31.1,090326,2.5,W*72"
2026-03-09T21:48:40.415Z,NMEA0183,,"$GPGGA,204840.41,4007.2943,N,01505.5025,E,1,05,1.7,10.0,M,0.0,M,,*6D"
2026-03-09T21:48:40.415Z,NMEA0183,,"$GPGSA,A,3,27,10,17,9,18,,,,,,,,2.0,1.6,2.4*03"
2026-03-09T21:48:40.415Z,NMEA0183,,"$GPGSV,2,1,5,27,85,294,50,10,12,219,31,17,20,278,47,9,10,316,39*7B"
2026-03-09T21:48:40.416Z,NMEA0183,,"$GPGSV,2,2,5,18,37,167,25*76"
2026-03-09T21:48:40.416Z,NMEA0183,,"$GPVTG,31.1,T,33.6,M,9.8,N,18.2,K,A*1C"
2026-03-09T21:48:40.416Z,NMEA0183,,"$IIHDG,31.1,,,2.5,W*04"
2026-03-09T21:48:40.416Z,NMEA0183,,"$VHW,31.1,T,33.6,M,9.8,N,18.2,K*6A"
2026-03-09T21:48:40.416Z,NMEA0183,,"$MTW,17.2,C*17"
2026-03-09T21:48:40.416Z,NMEA0183,,"$WIMWV,115.3,R,7.1,N,A*23"
2026-03-09T21:48:40.417Z,NMEA0183,,"$WIMWV,115.3,R,7.1,N,A*23"
2026-03-09T21:48:41.417Z,NMEA0183,,"$GPRMC,204841.41,A,4007.2967,N,01505.5044,E,9.7,29.5,090326,2.5,W*70"
2026-03-09T21:48:41.417Z,NMEA0183,,"$GPGGA,204841.41,4007.2967,N,01505.5044,E,1,05,1.8,10.0,M,0.0,M,,*62"
2026-03-09T21:48:41.417Z,NMEA0183,,"$GPGSA,A,3,9,1,20,24,7,,,,,,,,1.1,2.0,2.2*0B"
2026-03-09T21:48:41.417Z,NMEA0183,,"$GPGSV,2,1,5,9,29,63,38,1,85,346,32,20,81,315,47,24,82,59,48*4C"
2026-03-09T21:48:41.418Z,NMEA0183,,"$GPGSV,2,2,5,7,0,119,48*7E"
2026-03-09T21:48:41.418Z,NMEA0183,,"$GPVTG,29.5,T,32.0,M,9.7,N,18.0,K,A*1B"
2026-03-09T21:48:41.418Z,NMEA0183,,"$IIHDG,29.5,,,2.5,W*09"
2026-03-09T21:48:41.418Z,NMEA0183,,"$VHW,29.5,T,32.0,M,9.7,N,18.0,K*6D"
2026-03-09T21:48:41.418Z,NMEA0183,,"$MTW,17.3,C*16"
2026-03-09T21:48:41.419Z,NMEA0183,,"$WIMWV,88.1,R,9.6,N,A*1D"
2026-03-09T21:48:41.419Z,NMEA0183,,"$WIMWV,88.1,R,9.6,N,A*1D"
2026-03-09T21:48:42.419Z,NMEA0183,,"$GPRMC,204842.41,A,4007.2990,N,01505.5061,E,9.6,29.1,090326,2.5,W*79"
2026-03-09T21:48:42.419Z,NMEA0183,,"$GPGGA,204842.41,4007.2990,N,01505.5061,E,1,08,1.0,10.0,M,0.0,M,,*6B"
2026-03-09T21:48:42.420Z,NMEA0183,,"$GPGSA,A,3,11,12,25,31,4,19,27,28,,,,,1.6,1.9,1.2*0B"
2026-03-09T21:48:42.420Z,NMEA0183,,"$GPGSV,2,1,8,11,35,252,35,12,51,16,38,25,90,252,50,31,46,178,25*7B"
2026-03-09T21:48:42.420Z,NMEA0183,,"$GPGSV,2,2,8,4,66,296,42,19,38,282,39,27,22,284,37,28,21,235,25*7A"
2026-03-09T21:48:42.420Z,NMEA0183,,"$GPVTG,29.1,T,31.6,M,9.6,N,17.8,K,A*1C"
2026-03-09T21:48:42.420Z,NMEA0183,,"$IIHDG,29.1,,,2.5,W*0D"
2026-03-09T21:48:42.421Z,NMEA0183,,"$VHW,29.1,T,31.6,M,9.6,N,17.8,K*6A"
2026-03-09T21:48:42.421Z,NMEA0183,,"$MTW,17.2,C*17"
2026-03-09T21:48:42.421Z,NMEA0183,,"$WIMWV,84.6,R,8.5,N,A*14"
2026-03-09T21:48:42.421Z,NMEA0183,,"$WIMWV,84.6,R,8.5,N,A*14"
2026-03-09T21:48:43.421Z,NMEA0183,,"$GPRMC,204843.41,A,4007.3014,N,01505.5078,E,9.6,31.1,090326,2.5,W*7D"
2026-03-09T21:48:43.421Z,NMEA0183,,"$GPGGA,204843.41,4007.3014,N,01505.5078,E,1,05,1.1,10.0,M,0.0,M,,*6A"
2026-03-09T21:48:43.422Z,NMEA0183,,"$GPGSA,A,3,14,31,10,20,22,,,,,,,,1.4,2.0,1.0*30"
2026-03-09T21:48:43.422Z,NMEA0183,,"$GPGSV,2,1,5,14,86,74,35,31,65,165,45,10,77,286,30,20,13,67,29*47"
2026-03-09T21:48:43.422Z,NMEA0183,,"$GPGSV,2,2,5,22,18,246,47*76"
2026-03-09T21:48:43.422Z,NMEA0183,,"$GPVTG,31.1,T,33.6,M,9.6,N,17.9,K,A*16"
2026-03-09T21:48:43.422Z,NMEA0183,,"$IIHDG,31.1,,,2.5,W*04"
2026-03-09T21:48:43.423Z,NMEA0183,,"$VHW,31.1,T,33.6,M,9.6,N,17.9,K*60"
2026-03-09T21:48:43.423Z,NMEA0183,,"$MTW,17.2,C*17"
2026-03-09T21:48:43.423Z,NMEA0183,,"$WIMWV,100.1,R,9.1,N,A*2B"
2026-03-09T21:48:43.423Z,NMEA0183,,"$WIMWV,100.1,R,9.1,N,A*2B"
2026-03-09T21:48:44.423Z,NMEA0183,,"$GPRMC,204844.42,A,4007.3037,N,01505.5096,E,9.8,32.3,090326,2.5,W*77"
2026-03-09T21:48:44.423Z,NMEA0183,,"$GPGGA,204844.42,4007.3037,N,01505.5096,E,1,11,1.1,10.0,M,0.0,M,,*6A"
2026-03-09T21:48:44.423Z,NMEA0183,,"$GPGSA,A,3,11,24,4,30,6,2,14,31,22,12,29,,1.4,1.4,1.7*0E"
2026-03-09T21:48:44.424Z,NMEA0183,,"$GPGSV,3,1,11,11,44,269,28,24,81,180,43,4,52,128,22,30,63,204,48*49"
2026-03-09T21:48:44.424Z,NMEA0183,,"$GPGSV,3,2,11,6,38,229,31,2,16,283,42,14,66,221,42,31,83,62,39*41"
2026-03-09T21:48:44.424Z,NMEA0183,,"$GPGSV,3,3,11,22,47,342,29,12,28,300,44,29,82,229,29*4D"
2026-03-09T21:48:44.424Z,NMEA0183,,"$GPVTG,32.3,T,34.8,M,9.8,N,18.1,K,A*17"
2026-03-09T21:48:44.424Z,NMEA0183,,"$IIHDG,32.3,,,2.5,W*05"
2026-03-09T21:48:44.425Z,NMEA0183,,"$VHW,32.3,T,34.8,M,9.8,N,18.1,K*61"
2026-03-09T21:48:44.425Z,NMEA0183,,"$MTW,17.1,C*14"
2026-03-09T21:48:44.425Z,NMEA0183,,"$WIMWV,98.4,R,9.1,N,A*1E"
2026-03-09T21:48:44.425Z,NMEA0183,,"$WIMWV,98.4,R,9.1,N,A*1E"
2026-03-09T21:48:45.424Z,NMEA0183,,"$GPRMC,204845.42,A,4007.3059,N,01505.5115,E,9.7,34.1,090326,2.5,W*7F"
2026-03-09T21:48:45.424Z,NMEA0183,,"$GPGGA,204845.42,4007.3059,N,01505.5115,E,1,07,1.8,10.0,M,0.0,M,,*67"
2026-03-09T21:48:45.425Z,NMEA0183,,"$GPGSA,A,3,10,28,12,13,20,29,16,,,,,,1.5,1.1,1.8*3B"
2026-03-09T21:48:45.425Z,NMEA0183,,"$GPGSV,2,1,7,10,82,86,20,28,51,323,45,12,39,184,23,13,45,65,37*46"
2026-03-09T21:48:45.425Z,NMEA0183,,"$GPGSV,2,2,7,20,42,166,39,29,49,203,22,16,30,19,49*47"
2026-03-09T21:48:45.425Z,NMEA0183,,"$GPVTG,34.1,T,36.6,M,9.7,N,17.9,K,A*17"
2026-03-09T21:48:45.425Z,NMEA0183,,"$IIHDG,34.1,,,2.5,W*01"
2026-03-09T21:48:45.426Z,NMEA0183,,"$VHW,34.1,T,36.6,M,9.7,N,17.9,K*61"
2026-03-09T21:48:45.426Z,NMEA0183,,"$MTW,17.1,C*14"
2026-03-09T21:48:45.426Z,NMEA0183,,"$WIMWV,118.8,R,10.5,N,A*17"
2026-03-09T21:48:45.426Z,NMEA0183,,"$WIMWV,118.8,R,10.5,N,A*17"
2026-03-09T21:48:46.425Z,NMEA0183,,"$GPRMC,204846.42,A,4007.3082,N,01505.5135,E,9.5,35.3,090326,2.5,W*79"
2026-03-09T21:48:46.426Z,NMEA0183,,"$GPGGA,204846.42,4007.3082,N,01505.5135,E,1,05,1.3,10.0,M,0.0,M,,*69"
2026-03-09T21:48:46.426Z,NMEA0183,,"$GPGSA,A,3,26,14,3,29,6,,,,,,,,2.5,1.3,1.7*3E"
2026-03-09T21:48:46.426Z,NMEA0183,,"$GPGSV,2,1,5,26,13,132,47,14,39,294,43,3,44,63,39,29,62,198,37*4A"
2026-03-09T21:48:46.426Z,NMEA0183,,"$GPGSV,2,2,5,6,16,19,49*78"
2026-03-09T21:48:46.426Z,NMEA0183,,"$GPVTG,35.3,T,37.8,M,9.5,N,17.6,K,A*16"
2026-03-09T21:48:46.426Z,NMEA0183,,"$IIHDG,35.3,,,2.5,W*02"
2026-03-09T21:48:46.427Z,NMEA0183,,"$VHW,35.3,T,37.8,M,9.5,N,17.6,K*60"
2026-03-09T21:48:46.427Z,NMEA0183,,"$MTW,17.2,C*17"
2026-03-09T21:48:46.427Z,NMEA0183,,"$WIMWV,109.8,R,7.3,N,A*27"
2026-03-09T21:48:46.427Z,NMEA0183,,"$WIMWV,109.8,R,7.3,N,A*27"
2026-03-09T21:48:47.427Z,NMEA0183,,"$GPRMC,204847.42,A,4007.3103,N,01505.5155,E,9.7,33.8,090326,2.5,W*79"
2026-03-09T21:48:47.427Z,NMEA0183,,"$GPGGA,204847.42,4007.3103,N,01505.5155,E,1,11,1.4,10.0,M,0.0,M,,*64"
2026-03-09T21:48:47.427Z,NMEA0183,,"$GPGSA,A,3,8,1,31,26,13,18,19,16,3,7,29,,2.3,1.2,2.3*35"
2026-03-09T21:48:47.427Z,NMEA0183,,"$GPGSV,3,1,11,8,29,106,44,1,89,261,49,31,89,20,29,26,3,315,41*78"
2026-03-09T21:48:47.428Z,NMEA0183,,"$GPGSV,3,2,11,13,81,350,25,18,36,301,27,19,49,336,33,16,51,184,22*74"
2026-03-09T21:48:47.428Z,NMEA0183,,"$GPGSV,3,3,11,3,23,296,49,7,6,67,33,29,89,90,49*75"
2026-03-09T21:48:47.428Z,NMEA0183,,"$GPVTG,33.8,T,36.3,M,9.7,N,17.9,K,A*1C"
2026-03-09T21:48:47.428Z,NMEA0183,,"$IIHDG,33.8,,,2.5,W*0F"
2026-03-09T21:48:47.428Z,NMEA0183,,"$VHW,33.8,T,36.3,M,9.7,N,17.9,K*6A"
2026-03-09T21:48:47.428Z,NMEA0183,,"$MTW,17.2,C*17"
2026-03-09T21:48:47.429Z,NMEA0183,,"$WIMWV,90.7,R,9.4,N,A*10"
2026-03-09T21:48:47.429Z,NMEA0183,,"$WIMWV,90.7,R,9.4,N,A*10"
2026-03-09T21:48:48.428Z,NMEA0183,,"$GPRMC,204848.42,A,4007.3126,N,01505.5174,E,9.8,35.4,090326,2.5,W*77"
2026-03-09T21:48:48.428Z,NMEA0183,,"$GPGGA,204848.42,4007.3126,N,01505.5174,E,1,09,1.7,10.0,M,0.0,M,,*65"
2026-03-09T21:48:48.428Z,NMEA0183,,"$GPGSA,A,3,20,11,1,8,16,27,3,12,7,,,,1.9,1.7,1.1*32"
2026-03-09T21:48:48.429Z,NMEA0183,,"$GPGSV,3,1,9,20,43,151,30,11,68,4,24,1,39,243,36,8,21,221,33*4C"
2026-03-09T21:48:48.429Z,NMEA0183,,"$GPGSV,3,2,9,16,6,75,22,27,73,204,33,3,52,118,34,12,27,291,47*71"
2026-03-09T21:48:48.429Z,NMEA0183,,"$GPGSV,3,3,9,7,37,252,46*44"
2026-03-09T21:48:48.429Z,NMEA0183,,"$GPVTG,35.4,T,37.9,M,9.8,N,18.2,K,A*16"
2026-03-09T21:48:48.429Z,NMEA0183,,"$IIHDG,35.4,,,2.5,W*05"
2026-03-09T21:48:48.430Z,NMEA0183,,"$VHW,35.4,T,37.9,M,9.8,N,18.2,K*60"
2026-03-09T21:48:48.430Z,NMEA0183,,"$MTW,17.2,C*17"
2026-03-09T21:48:48.430Z,NMEA0183,,"$WIMWV,114.8,R,7.4,N,A*2C"
2026-03-09T21:48:48.430Z,NMEA0183,,"$WIMWV,114.8,R,7.4,N,A*2C"
2026-03-09T21:48:49.430Z,NMEA0183,,"$GPRMC,204849.42,A,4007.3148,N,01505.5195,E,9.8,35.2,090326,2.5,W*77"
2026-03-09T21:48:49.430Z,NMEA0183,,"$GPGGA,204849.42,4007.3148,N,01505.5195,E,1,11,1.6,10.0,M,0.0,M,,*6B"
2026-03-09T21:48:49.431Z,NMEA0183,,"$GPGSA,A,3,30,27,31,8,23,5,13,9,21,7,2,,1.1,1.4,1.4*07"
2026-03-09T21:48:49.431Z,NMEA0183,,"$GPGSV,3,1,11,30,5,267,30,27,60,259,47,31,70,271,35,8,30,104,46*78"
2026-03-09T21:48:49.431Z,NMEA0183,,"$GPGSV,3,2,11,23,6,174,38,5,13,285,28,13,29,345,20,9,21,354,31*47"
2026-03-09T21:48:49.431Z,NMEA0183,,"$GPGSV,3,3,11,21,21,163,35,7,60,45,28,2,0,99,20*71"
2026-03-09T21:48:49.431Z,NMEA0183,,"$GPVTG,35.2,T,37.7,M,9.8,N,18.1,K,A*1D"
2026-03-09T21:48:49.432Z,NMEA0183,,"$IIHDG,35.2,,,2.5,W*03"
2026-03-09T21:48:49.432Z,NMEA0183,,"$VHW,35.2,T,37.7,M,9.8,N,18.1,K*6B"
2026-03-09T21:48:49.432Z,NMEA0183,,"$MTW,17.2,C*17"
2026-03-09T21:48:49.432Z,NMEA0183,,"$WIMWV,108.9,R,8.7,N,A*2C"
2026-03-09T21:48:49.432Z,NMEA0183,,"$WIMWV,108.9,R,8.7,N,A*2C"
2026-03-09T21:48:50.431Z,NMEA0183,,"$GPRMC,204850.42,A,4007.3170,N,01505.5215,E,10.0,33.3,090326,2.5,W*48"
2026-03-09T21:48:50.432Z,NMEA0183,,"$GPGGA,204850.42,4007.3170,N,01505.5215,E,1,11,1.5,10.0,M,0.0,M,,*60"
2026-03-09T21:48:50.432Z,NMEA0183,,"$GPGSA,A,3,11,21,1,18,20,26,7,8,27,25,9,,1.9,0.8,2.3*3A"
2026-03-09T21:48:50.432Z,NMEA0183,,"$GPGSV,3,1,11,11,4,349,26,21,71,206,34,1,47,215,45,18,88,338,22*77"
2026-03-09T21:48:50.432Z,NMEA0183,,"$GPGSV,3,2,11,20,69,61,40,26,75,134,45,7,55,311,24,8,58,71,26*72"
2026-03-09T21:48:50.432Z,NMEA0183,,"$GPGSV,3,3,11,27,31,285,39,25,4,110,44,9,5,26,24*46"
2026-03-09T21:48:50.432Z,NMEA0183,,"$GPVTG,33.3,T,35.8,M,10.0,N,18.4,K,A*22"
2026-03-09T21:48:50.433Z,NMEA0183,,"$IIHDG,33.3,,,2.5,W*04"
2026-03-09T21:48:50.433Z,NMEA0183,,"$VHW,33.3,T,35.8,M,10.0,N,18.4,K*54"
2026-03-09T21:48:50.433Z,NMEA0183,,"$MTW,17.2,C*17"
2026-03-09T21:48:50.433Z,NMEA0183,,"$WIMWV,86.6,R,11.6,N,A*2D"
2026-03-09T21:48:50.434Z,NMEA0183,,"$WIMWV,86.6,R,11.6,N,A*2D"
2026-03-09T21:48:51.433Z,NMEA0183,,"$GPRMC,204851.43,A,4007.3193,N,01505.5235,E,9.9,31.4,090326,2.5,W*73"
2026-03-09T21:48:51.433Z,NMEA0183,,"$GPGGA,204851.43,4007.3193,N,01505.5235,E,1,11,1.3,10.0,M,0.0,M,,*69"
2026-03-09T21:48:51.433Z,NMEA0183,,"$GPGSA,A,3,18,3,30,15,20,12,21,31,24,19,10,,1.1,1.4,1.7*03"
2026-03-09T21:48:51.433Z,NMEA0183,,"$GPGSV,3,1,11,18,78,280,35,3,72,163,28,30,39,333,20,15,17,271,28*4D"
2026-03-09T21:48:51.433Z,NMEA0183,,"$GPGSV,3,2,11,20,89,217,31,12,68,224,20,21,73,68,23,31,35,341,35*4A"
2026-03-09T21:48:51.434Z,NMEA0183,,"$GPGSV,3,3,11,24,63,193,36,19,57,297,45,10,26,3,22*45"
2026-03-09T21:48:51.434Z,NMEA0183,,"$GPVTG,31.4,T,33.9,M,9.9,N,18.2,K,A*17"
2026-03-09T21:48:51.434Z,NMEA0183,,"$IIHDG,31.4,,,2.5,W*01"
2026-03-09T21:48:51.434Z,NMEA0183,,"$VHW,31.4,T,33.9,M,9.9,N,18.2,K*61"
2026-03-09T21:48:51.434Z,NMEA0183,,"$MTW,17.2,C*17"
2026-03-09T21:48:51.435Z,NMEA0183,,"$WIMWV,91.5,R,8.9,N,A*1F"
2026-03-09T21:48:51.435Z,NMEA0183,,"$WIMWV,91.5,R,8.9,N,A*1F"
2026-03-09T21:48:52.434Z,NMEA0183,,"$GPRMC,204852.43,A,4007.3217,N,01505.5254,E,9.9,32.1,090326,2.5,W*7E"
2026-03-09T21:48:52.434Z,NMEA0183,,"$GPGGA,204852.43,4007.3217,N,01505.5254,E,1,12,1.0,10.0,M,0.0,M,,*62"
2026-03-09T21:48:52.434Z,NMEA0183,,"$GPGSA,A,3,25,22,5,10,7,3,8,17,15,24,1,4,1.5,1.9,2.3*31"
2026-03-09T21:48:52.434Z,NMEA0183,,"$GPGSV,3,1,12,25,11,109,38,22,10,89,38,5,77,188,25,10,32,201,45*76"
2026-03-09T21:48:52.435Z,NMEA0183,,"$GPGSV,3,2,12,7,16,2,24,3,26,192,26,8,35,100,20,17,87,198,23*43"
2026-03-09T21:48:52.435Z,NMEA0183,,"$GPGSV,3,3,12,15,53,43,27,24,75,3,26,1,27,141,47,4,84,0,27*47"
2026-03-09T21:48:52.435Z,NMEA0183,,"$GPVTG,32.1,T,34.6,M,9.9,N,18.4,K,A*1F"
2026-03-09T21:48:52.435Z,NMEA0183,,"$IIHDG,32.1,,,2.5,W*07"
2026-03-09T21:48:52.436Z,NMEA0183,,"$VHW,32.1,T,34.6,M,9.9,N,18.4,K*69"
2026-03-09T21:48:52.436Z,NMEA0183,,"$MTW,17.2,C*17"
2026-03-09T21:48:52.436Z,NMEA0183,,"$WIMWV,92.0,R,11.2,N,A*2A"
2026-03-09T21:48:52.436Z,NMEA0183,,"$WIMWV,92.0,R,11.2,N,A*2A"
2026-03-09T21:48:53.436Z,NMEA0183,,"$GPRMC,204853.43,A,4007.3240,N,01505.5273,E,9.9,31.0,090326,2.5,W*7A"
2026-03-09T21:48:53.436Z,NMEA0183,,"$GPGGA,204853.43,4007.3240,N,01505.5273,E,1,09,1.9,10.0,M,0.0,M,,*67"
2026-03-09T21:48:53.437Z,NMEA0183,,"$GPGSA,A,3,24,1,31,22,32,18,10,16,25,,,,2.2,1.7,2.4*0E"
2026-03-09T21:48:53.437Z,NMEA0183,,"$GPGSV,3,1,9,24,43,227,26,1,46,135,46,31,36,139,27,22,19,89,42*40"
2026-03-09T21:48:53.437Z,NMEA0183,,"$GPGSV,3,2,9,32,9,351,35,18,47,337,45,10,58,18,28,16,67,224,44*49"
2026-03-09T21:48:53.437Z,NMEA0183,,"$GPGSV,3,3,9,25,90,246,27*7B"
2026-03-09T21:48:53.437Z,NMEA0183,,"$GPVTG,31.0,T,33.5,M,9.9,N,18.3,K,A*1E"
2026-03-09T21:48:53.437Z,NMEA0183,,"$IIHDG,31.0,,,2.5,W*05"
2026-03-09T21:48:53.438Z,NMEA0183,,"$VHW,31.0,T,33.5,M,9.9,N,18.3,K*68"
2026-03-09T21:48:53.438Z,NMEA0183,,"$MTW,17.2,C*17"
2026-03-09T21:48:53.438Z,NMEA0183,,"$WIMWV,86.2,R,10.0,N,A*2E"
2026-03-09T21:48:53.438Z,NMEA0183,,"$WIMWV,86.2,R,10.0,N,A*2E"
2026-03-09T21:48:54.438Z,NMEA0183,,"$GPRMC,204854.43,A,4007.3264,N,01505.5292,E,9.8,31.3,090326,2.5,W*76"
2026-03-09T21:48:54.438Z,NMEA0183,,"$GPGGA,204854.43,4007.3264,N,01505.5292,E,1,10,2.0,10.0,M,0.0,M,,*6B"
2026-03-09T21:48:54.439Z,NMEA0183,,"$GPGSA,A,3,8,24,12,2,17,7,22,20,28,6,,,1.3,0.8,1.6*3F"
2026-03-09T21:48:54.439Z,NMEA0183,,"$GPGSV,3,1,10,8,61,78,27,24,5,51,46,12,33,279,21,2,55,247,37*41"
2026-03-09T21:48:54.439Z,NMEA0183,,"$GPGSV,3,2,10,17,8,89,43,7,15,281,32,22,88,99,31,20,86,249,29*72"
2026-03-09T21:48:54.440Z,NMEA0183,,"$GPGSV,3,3,10,28,50,100,42,6,39,305,40*4E"
2026-03-09T21:48:54.440Z,NMEA0183,,"$GPVTG,31.3,T,33.8,M,9.8,N,18.2,K,A*10"
2026-03-09T21:48:54.440Z,NMEA0183,,"$IIHDG,31.3,,,2.5,W*06"
2026-03-09T21:48:54.440Z,NMEA0183,,"$VHW,31.3,T,33.8,M,9.8,N,18.2,K*66"
2026-03-09T21:48:54.440Z,NMEA0183,,"$MTW,17.3,C*16"
2026-03-09T21:48:54.441Z,NMEA0183,,"$WIMWV,93.9,R,10.6,N,A*27"
2026-03-09T21:48:54.441Z,NMEA0183,,"$WIMWV,93.9,R,10.6,N,A*27"
2026-03-09T21:48:55.439Z,NMEA0183,,"$GPRMC,204855.43,A,4007.3287,N,01505.5310,E,10.0,31.7,090326,2.5,W*45"
2026-03-09T21:48:55.440Z,NMEA0183,,"$GPGGA,204855.43,4007.3287,N,01505.5310,E,1,06,1.9,10.0,M,0.0,M,,*61"
2026-03-09T21:48:55.440Z,NMEA0183,,"$GPGSA,A,3,23,4,3,1,13,17,,,,,,,1.6,1.7,1.7*06"
2026-03-09T21:48:55.440Z,NMEA0183,,"$GPGSV,2,1,6,23,23,350,26,4,73,355,37,3,52,9,44,1,41,26,25*43"
2026-03-09T21:48:55.440Z,NMEA0183,,"$GPGSV,2,2,6,13,12,332,40,17,64,260,32*49"
2026-03-09T21:48:55.440Z,NMEA0183,,"$GPVTG,31.7,T,34.2,M,10.0,N,18.5,K,A*2E"
2026-03-09T21:48:55.441Z,NMEA0183,,"$IIHDG,31.7,,,2.5,W*02"
2026-03-09T21:48:55.441Z,NMEA0183,,"$VHW,31.7,T,34.2,M,10.0,N,18.5,K*58"
2026-03-09T21:48:55.441Z,NMEA0183,,"$MTW,17.2,C*17"
2026-03-09T21:48:55.441Z,NMEA0183,,"$WIMWV,89.2,R,9.7,N,A*1E"
2026-03-09T21:48:55.442Z,NMEA0183,,"$WIMWV,89.2,R,9.7,N,A*1E"
2026-03-09T21:48:56.442Z,NMEA0183,,"$GPRMC,204856.43,A,4007.3311,N,01505.5329,E,9.9,31.4,090326,2.5,W*70"
2026-03-09T21:48:56.442Z,NMEA0183,,"$GPGGA,204856.43,4007.3311,N,01505.5329,E,1,10,1.6,10.0,M,0.0,M,,*6E"
2026-03-09T21:48:56.442Z,NMEA0183,,"$GPGSA,A,3,16,15,10,3,11,31,22,7,27,24,,,2.3,1.3,1.2*35"
2026-03-09T21:48:56.442Z,NMEA0183,,"$GPGSV,3,1,10,16,84,279,36,15,69,29,27,10,79,139,31,3,87,200,48*79"
2026-03-09T21:48:56.442Z,NMEA0183,,"$GPGSV,3,2,10,11,34,217,27,31,61,217,34,22,40,102,29,7,55,114,36*43"
2026-03-09T21:48:56.443Z,NMEA0183,,"$GPGSV,3,3,10,27,4,200,21,24,33,343,25*4D"
2026-03-09T21:48:56.443Z,NMEA0183,,"$GPVTG,31.4,T,33.9,M,9.9,N,18.4,K,A*11"
2026-03-09T21:48:56.443Z,NMEA0183,,"$IIHDG,31.4,,,2.5,W*01"
2026-03-09T21:48:56.443Z,NMEA0183,,"$VHW,31.4,T,33.9,M,9.9,N,18.4,K*67"
2026-03-09T21:48:56.444Z,NMEA0183,,"$MTW,17.3,C*16"
2026-03-09T21:48:56.444Z,NMEA0183,,"$WIMWV,95.6,R,7.8,N,A*16"
2026-03-09T21:48:56.444Z,NMEA0183,,"$WIMWV,95.6,R,7.8,N,A*16"
2026-03-09T21:48:57.444Z,NMEA0183,,"$GPRMC,204857.44,A,4007.3334,N,01505.5348,E,10.1,30.6,090326,2.5,W*45"
2026-03-09T21:48:57.444Z,NMEA0183,,"$GPGGA,204857.44,4007.3334,N,01505.5348,E,1,11,2.0,10.0,M,0.0,M,,*6C"
2026-03-09T21:48:57.444Z,NMEA0183,,"$GPGSA,A,3,31,32,15,9,16,10,20,2,1,13,11,,2.1,1.2,1.9*01"
2026-03-09T21:48:57.445Z,NMEA0183,,"$GPGSV,3,1,11,31,60,25,21,32,31,274,30,15,45,260,46,9,81,235,50*78"
2026-03-09T21:48:57.445Z,NMEA0183,,"$GPGSV,3,2,11,16,59,133,46,10,15,302,28,20,22,330,46,2,12,355,22*4C"
2026-03-09T21:48:57.445Z,NMEA0183,,"$GPGSV,3,3,11,1,11,282,42,13,76,71,42,11,49,169,48*4A"
2026-03-09T21:48:57.445Z,NMEA0183,,"$GPVTG,30.6,T,33.1,M,10.1,N,18.7,K,A*29"
2026-03-09T21:48:57.445Z,NMEA0183,,"$IIHDG,30.6,,,2.5,W*02"
2026-03-09T21:48:57.446Z,NMEA0183,,"$VHW,30.6,T,33.1,M,10.1,N,18.7,K*5F"
2026-03-09T21:48:57.446Z,NMEA0183,,"$MTW,17.3,C*16"
2026-03-09T21:48:57.446Z,NMEA0183,,"$WIMWV,108.7,R,9.7,N,A*23"
2026-03-09T21:48:57.446Z,NMEA0183,,"$WIMWV,108.7,R,9.7,N,A*23"
2026-03-09T21:48:58.445Z,NMEA0183,,"$GPRMC,204858.44,A,4007.3358,N,01505.5367,E,10.0,31.7,090326,2.5,W*4C"
2026-03-09T21:48:58.445Z,NMEA0183,,"$GPGGA,204858.44,4007.3358,N,01505.5367,E,1,06,1.6,10.0,M,0.0,M,,*67"
2026-03-09T21:48:58.446Z,NMEA0183,,"$GPGSA,A,3,13,22,25,16,9,3,,,,,,,2.3,2.0,2.0*3B"
2026-03-09T21:48:58.446Z,NMEA0183,,"$GPGSV,2,1,6,13,68,102,37,22,53,129,39,25,26,256,23,16,35,118,28*41"
2026-03-09T21:48:58.446Z,NMEA0183,,"$GPGSV,2,2,6,9,8,24,49,3,68,284,41*43"
2026-03-09T21:48:58.446Z,NMEA0183,,"$GPVTG,31.7,T,34.2,M,10.0,N,18.5,K,A*2E"
2026-03-09T21:48:58.446Z,NMEA0183,,"$IIHDG,31.7,,,2.5,W*02"
2026-03-09T21:48:58.447Z,NMEA0183,,"$VHW,31.7,T,34.2,M,10.0,N,18.5,K*58"
2026-03-09T21:48:58.447Z,NMEA0183,,"$MTW,17.3,C*16"
2026-03-09T21:48:58.447Z,NMEA0183,,"$WIMWV,110.8,R,8.5,N,A*26"
2026-03-09T21:48:58.447Z,NMEA0183,,"$WIMWV,110.8,R,8.5,N,A*26"
2026-03-09T21:48:59.447Z,NMEA0183,,"$GPRMC,204859.44,A,4007.3382,N,01505.5386,E,10.0,33.6,090326,2.5,W*46"
2026-03-09T21:48:59.447Z,NMEA0183,,"$GPGGA,204859.44,4007.3382,N,01505.5386,E,1,12,1.5,10.0,M,0.0,M,,*68"
2026-03-09T21:48:59.447Z,NMEA0183,,"$GPGSA,A,3,31,22,13,30,24,28,25,14,16,5,27,12,1.4,1.9,1.2*05"
2026-03-09T21:48:59.448Z,NMEA0183,,"$GPGSV,3,1,12,31,54,8,42,22,19,61,22,13,87,316,39,30,49,116,28*4B"
2026-03-09T21:48:59.448Z,NMEA0183,,"$GPGSV,3,2,12,24,80,303,42,28,55,36,38,25,35,50,41,14,1,233,21*43"
2026-03-09T21:48:59.448Z,NMEA0183,,"$GPGSV,3,3,12,16,85,0,22,5,86,35,44,27,69,272,43,12,22,218,29*74"
2026-03-09T21:48:59.448Z,NMEA0183,,"$GPVTG,33.6,T,36.1,M,10.0,N,18.6,K,A*2F"
2026-03-09T21:48:59.448Z,NMEA0183,,"$IIHDG,33.6,,,2.5,W*01"
2026-03-09T21:48:59.448Z,NMEA0183,,"$VHW,33.6,T,36.1,M,10.0,N,18.6,K*59"
2026-03-09T21:48:59.449Z,NMEA0183,,"$MTW,17.3,C*16"
2026-03-09T21:48:59.449Z,NMEA0183,,"$WIMWV,110.6,R,7.8,N,A*2A"
2026-03-09T21:48:59.449Z,NMEA0183,,"$WIMWV,110.6,R,7.8,N,A*2A"
2026-03-09T21:49:00.448Z,NMEA0183,,"$GPRMC,204900.44,A,4007.3405,N,01505.5406,E,10.0,33.3,090326,2.5,W*49"
2026-03-09T21:49:00.448Z,NMEA0183,,"$GPGGA,204900.44,4007.3405,N,01505.5406,E,1,06,1.1,10.0,M,0.0,M,,*63"
2026-03-09T21:49:00.448Z,NMEA0183,,"$GPGSA,A,3,18,26,19,3,31,16,,,,,,,2.1,1.3,2.2*00"
2026-03-09T21:49:00.449Z,NMEA0183,,"$GPGSV,2,1,6,18,45,249,22,26,78,266,44,19,41,96,40,3,18,226,20*4A"
2026-03-09T21:49:00.449Z,NMEA0183,,"$GPGSV,2,2,6,31,42,216,45,16,11,323,39*40"
2026-03-09T21:49:00.449Z,NMEA0183,,"$GPVTG,33.3,T,35.8,M,10.0,N,18.4,K,A*22"
2026-03-09T21:49:00.449Z,NMEA0183,,"$IIHDG,33.3,,,2.5,W*04"
2026-03-09T21:49:00.449Z,NMEA0183,,"$VHW,33.3,T,35.8,M,10.0,N,18.4,K*54"
2026-03-09T21:49:00.450Z,NMEA0183,,"$MTW,17.3,C*16"
2026-03-09T21:49:00.450Z,NMEA0183,,"$WIMWV,112.8,R,9.9,N,A*29"
2026-03-09T21:49:00.450Z,NMEA0183,,"$WIMWV,112.8,R,9.9,N,A*29"
2026-03-09T21:49:01.449Z,NMEA0183,,"$GPRMC,204901.44,A,4007.3428,N,01505.5426,E,10.0,34.0,090326,2.5,W*41"
2026-03-09T21:49:01.450Z,NMEA0183,,"$GPGGA,204901.44,4007.3428,N,01505.5426,E,1,10,0.8,10.0,M,0.0,M,,*60"
2026-03-09T21:49:01.450Z,NMEA0183,,"$GPGSA,A,3,27,8,20,31,12,30,15,25,11,24,,,1.7,1.2,2.5*08"
2026-03-09T21:49:01.450Z,NMEA0183,,"$GPGSV,3,1,10,27,17,265,48,8,81,3,46,20,76,102,34,31,71,270,44*42"
2026-03-09T21:49:01.450Z,NMEA0183,,"$GPGSV,3,2,10,12,42,37,37,30,44,227,30,15,10,176,49,25,45,180,50*49"
2026-03-09T21:49:01.450Z,NMEA0183,,"$GPGSV,3,3,10,11,19,323,41,24,24,357,40*72"
2026-03-09T21:49:01.451Z,NMEA0183,,"$GPVTG,34.0,T,36.5,M,10.0,N,18.5,K,A*29"
2026-03-09T21:49:01.451Z,NMEA0183,,"$IIHDG,34.0,,,2.5,W*00"
2026-03-09T21:49:01.451Z,NMEA0183,,"$VHW,34.0,T,36.5,M,10.0,N,18.5,K*5F"
2026-03-09T21:49:01.451Z,NMEA0183,,"$MTW,17.3,C*16"
2026-03-09T21:49:01.451Z,NMEA0183,,"$WIMWV,106.7,R,7.1,N,A*25"
2026-03-09T21:49:01.452Z,NMEA0183,,"$WIMWV,106.7,R,7.1,N,A*25"
2026-03-09T21:49:02.451Z,NMEA0183,,"$GPRMC,204902.44,A,4007.3451,N,01505.5446,E,10.2,32.2,090326,2.5,W*4C"
2026-03-09T21:49:02.452Z,NMEA0183,,"$GPGGA,204902.44,4007.3451,N,01505.5446,E,1,06,1.2,10.0,M,0.0,M,,*67"
2026-03-09T21:49:02.452Z,NMEA0183,,"$GPGSA,A,3,21,25,20,8,30,11,,,,,,,1.2,1.1,2.1*0F"
2026-03-09T21:49:02.452Z,NMEA0183,,"$GPGSV,2,1,6,21,22,111,30,25,55,283,24,20,83,291,20,8,73,212,24*7F"
2026-03-09T21:49:02.452Z,NMEA0183,,"$GPGSV,2,2,6,30,39,1,21,11,68,51,25*79"
2026-03-09T21:49:02.452Z,NMEA0183,,"$GPVTG,32.2,T,34.7,M,10.2,N,18.8,K,A*22"
2026-03-09T21:49:02.453Z,NMEA0183,,"$IIHDG,32.2,,,2.5,W*04"
2026-03-09T21:49:02.453Z,NMEA0183,,"$VHW,32.2,T,34.7,M,10.2,N,18.8,K*54"
2026-03-09T21:49:02.453Z,NMEA0183,,"$MTW,17.3,C*16"
2026-03-09T21:49:02.453Z,NMEA0183,,"$WIMWV,97.5,R,7.1,N,A*1E"
2026-03-09T21:49:02.453Z,NMEA0183,,"$WIMWV,97.5,R,7.1,N,A*1E"
2026-03-09T21:49:03.452Z,NMEA0183,,"$GPRMC,204903.45,A,4007.3475,N,01505.5466,E,10.0,30.3,090326,2.5,W*49"
2026-03-09T21:49:03.452Z,NMEA0183,,"$GPGGA,204903.45,4007.3475,N,01505.5466,E,1,06,1.5,10.0,M,0.0,M,,*64"
2026-03-09T21:49:03.453Z,NMEA0183,,"$GPGSA,A,3,25,5,2,9,4,23,,,,,,,1.2,1.6,1.9*32"
2026-03-09T21:49:03.453Z,NMEA0183,,"$GPGSV,2,1,6,25,35,347,44,5,90,54,49,2,14,343,48,9,70,36,29*72"
2026-03-09T21:49:03.453Z,NMEA0183,,"$GPGSV,2,2,6,4,60,118,40,23,44,94,46*4F"
2026-03-09T21:49:03.453Z,NMEA0183,,"$GPVTG,30.3,T,32.8,M,10.0,N,18.5,K,A*27"
2026-03-09T21:49:03.453Z,NMEA0183,,"$IIHDG,30.3,,,2.5,W*07"
2026-03-09T21:49:03.453Z,NMEA0183,,"$VHW,30.3,T,32.8,M,10.0,N,18.5,K*51"
2026-03-09T21:49:03.454Z,NMEA0183,,"$MTW,17.2,C*17"
2026-03-09T21:49:03.454Z,NMEA0183,,"$WIMWV,98.3,R,8.5,N,A*1C"
2026-03-09T21:49:03.454Z,NMEA0183,,"$WIMWV,98.3,R,8.5,N,A*1C"
2026-03-09T21:49:04.510Z,NMEA0183,,"$GPRMC,204904.45,A,4007.3499,N,01505.5484,E,10.0,31.2,090326,2.5,W*40"
2026-03-09T21:49:04.510Z,NMEA0183,,"$GPGGA,204904.45,4007.3499,N,01505.5484,E,1,09,1.8,10.0,M,0.0,M,,*6F"
2026-03-09T21:49:04.510Z,NMEA0183,,"$GPGSA,A,3,1,20,9,32,22,16,6,4,2,,,,2.2,1.2,1.5*09"
2026-03-09T21:49:04.511Z,NMEA0183,,"$GPGSV,3,1,9,1,90,337,43,20,54,73,23,9,54,241,43,32,11,242,39*7B"
2026-03-09T21:49:04.511Z,NMEA0183,,"$GPGSV,3,2,9,22,86,151,39,16,17,256,22,6,77,191,30,4,39,118,25*4D"
2026-03-09T21:49:04.512Z,NMEA0183,,"$GPGSV,3,3,9,2,76,195,38*45"
2026-03-09T21:49:04.512Z,NMEA0183,,"$GPVTG,31.2,T,33.7,M,10.0,N,18.6,K,A*2A"
2026-03-09T21:49:04.512Z,NMEA0183,,"$IIHDG,31.2,,,2.5,W*07"
2026-03-09T21:49:04.512Z,NMEA0183,,"$VHW,31.2,T,33.7,M,10.0,N,18.6,K*5C"
2026-03-09T21:49:04.512Z,NMEA0183,,"$MTW,17.2,C*17"
2026-03-09T21:49:04.513Z,NMEA0183,,"$WIMWV,86.4,R,8.2,N,A*13"
2026-03-09T21:49:04.513Z,NMEA0183,,"$WIMWV,86.4,R,8.2,N,A*13"
2026-03-09T21:49:05.455Z,NMEA0183,,"$GPRMC,204905.45,A,4007.3523,N,01505.5503,E,9.9,31.4,090326,2.5,W*78"
2026-03-09T21:49:05.456Z,NMEA0183,,"$GPGGA,204905.45,4007.3523,N,01505.5503,E,1,08,1.2,10.0,M,0.0,M,,*6B"
2026-03-09T21:49:05.456Z,NMEA0183,,"$GPGSA,A,3,7,17,24,6,25,15,30,28,,,,,2.1,1.8,1.1*33"
2026-03-09T21:49:05.456Z,NMEA0183,,"$GPGSV,2,1,8,7,5,319,50,17,46,340,28,24,39,286,27,6,18,132,41*78"
2026-03-09T21:49:05.456Z,NMEA0183,,"$GPGSV,2,2,8,25,79,66,41,15,86,310,23,30,30,167,32,28,29,207,28*7B"
2026-03-09T21:49:05.456Z,NMEA0183,,"$GPVTG,31.4,T,33.9,M,9.9,N,18.3,K,A*16"
2026-03-09T21:49:05.457Z,NMEA0183,,"$IIHDG,31.4,,,2.5,W*01"
2026-03-09T21:49:05.457Z,NMEA0183,,"$VHW,31.4,T,33.9,M,9.9,N,18.3,K*60"
2026-03-09T21:49:05.457Z,NMEA0183,,"$MTW,17.2,C*17"
2026-03-09T21:49:05.457Z,NMEA0183,,"$WIMWV,81.5,R,8.6,N,A*11"
2026-03-09T21:49:05.457Z,NMEA0183,,"$WIMWV,81.5,R,8.6,N,A*11"
2026-03-09T21:49:06.564Z,NMEA0183,,"$GPRMC,204906.45,A,4007.3546,N,01505.5522,E,10.1,30.9,090326,2.5,W*47"
2026-03-09T21:49:06.564Z,NMEA0183,,"$GPGGA,204906.45,4007.3546,N,01505.5522,E,1,05,0.9,10.0,M,0.0,M,,*6F"
2026-03-09T21:49:06.564Z,NMEA0183,,"$GPGSA,A,3,31,6,30,32,25,,,,,,,,1.5,0.7,0.9*09"
2026-03-09T21:49:06.564Z,NMEA0183,,"$GPGSV,2,1,5,31,36,243,50,6,70,89,39,30,41,333,43,32,12,220,31*40"
2026-03-09T21:49:06.564Z,NMEA0183,,"$GPGSV,2,2,5,25,41,266,33*7C"
2026-03-09T21:49:06.564Z,NMEA0183,,"$GPVTG,30.9,T,33.4,M,10.1,N,18.6,K,A*22"
2026-03-09T21:49:06.564Z,NMEA0183,,"$IIHDG,30.9,,,2.5,W*0D"
2026-03-09T21:49:06.564Z,NMEA0183,,"$VHW,30.9,T,33.4,M,10.1,N,18.6,K*54"
2026-03-09T21:49:06.565Z,NMEA0183,,"$MTW,17.2,C*17"
2026-03-09T21:49:06.565Z,NMEA0183,,"$WIMWV,97.6,R,6.9,N,A*14"
2026-03-09T21:49:06.565Z,NMEA0183,,"$WIMWV,97.6,R,6.9,N,A*14"
2026-03-09T21:49:07.458Z,NMEA0183,,"$GPRMC,204907.45,A,4007.3570,N,01505.5541,E,9.9,31.2,090326,2.5,W*7C"
2026-03-09T21:49:07.458Z,NMEA0183,,"$GPGGA,204907.45,4007.3570,N,01505.5541,E,1,08,1.6,10.0,M,0.0,M,,*6D"
2026-03-09T21:49:07.458Z,NMEA0183,,"$GPGSA,A,3,25,12,2,6,21,14,1,15,,,,,2.4,0.9,2.2*0E"
2026-03-09T21:49:07.458Z,NMEA0183,,"$GPGSV,2,1,8,25,70,321,45,12,39,72,36,2,26,307,39,6,56,1,25*71"
2026-03-09T21:49:07.459Z,NMEA0183,,"$GPGSV,2,2,8,21,69,192,47,14,59,61,37,1,28,75,50,15,90,359,43*77"
2026-03-09T21:49:07.459Z,NMEA0183,,"$GPVTG,31.2,T,33.7,M,9.9,N,18.4,K,A*19"
2026-03-09T21:49:07.459Z,NMEA0183,,"$IIHDG,31.2,,,2.5,W*07"
2026-03-09T21:49:07.460Z,NMEA0183,,"$VHW,31.2,T,33.7,M,9.9,N,18.4,K*6F"
2026-03-09T21:49:07.460Z,NMEA0183,,"$MTW,17.2,C*17"
2026-03-09T21:49:07.460Z,NMEA0183,,"$WIMWV,78.0,R,7.6,N,A*1D"
2026-03-09T21:49:07.460Z,NMEA0183,,"$WIMWV,78.0,R,7.6,N,A*1D"
2026-03-09T21:49:08.459Z,NMEA0183,,"$GPRMC,204908.45,A,4007.3594,N,01505.5559,E,10.0,30.5,090326,2.5,W*47"
2026-03-09T21:49:08.459Z,NMEA0183,,"$GPGGA,204908.45,4007.3594,N,01505.5559,E,1,08,1.3,10.0,M,0.0,M,,*64"
2026-03-09T21:49:08.459Z,NMEA0183,,"$GPGSA,A,3,4,20,2,21,8,13,32,10,,,,,1.9,1.2,2.0*06"
2026-03-09T21:49:08.459Z,NMEA0183,,"$GPGSV,2,1,8,4,88,339,44,20,64,0,37,2,31,186,43,21,54,254,30*41"
