timestamp,type,id,message
2026-03-16T19:05:09.723Z,NMEA0183,,"$GPRMC,180509.72,A,4004.4066,N,01500.7840,E,4.3,54.1,160326,2.5,W*71"
2026-03-16T19:05:09.724Z,NMEA0183,,"$GPGGA,180509.72,4004.4066,N,01500.7840,E,1,09,1.1,10.0,M,0.0,M,,*6F"
2026-03-16T19:05:09.724Z,NMEA0183,,"$GPGSA,A,3,32,1,14,22,29,17,6,21,10,,,,2.0,1.3,0.9*37"
2026-03-16T19:05:09.724Z,NMEA0183,,"$GPGSV,3,1,9,32,30,266,29,1,28,15,22,14,88,353,41,22,12,306,27*40"
2026-03-16T19:05:09.725Z,NMEA0183,,"$GPGSV,3,2,9,29,6,351,44,17,82,334,46,6,47,256,36,21,55,230,37*46"
2026-03-16T19:05:09.725Z,NMEA0183,,"$GPGSV,3,3,9,10,45,267,26*77"
2026-03-16T19:05:09.725Z,NMEA0183,,"$GPVTG,54.1,T,56.6,M,4.3,N,8.0,K,A*29"
2026-03-16T19:05:09.726Z,NMEA0183,,"$IIHDG,54.1,,,2.5,W*07"
2026-03-16T19:05:09.726Z,NMEA0183,,"$VHW,54.1,T,56.6,M,4.3,N,8.0,K*5F"
2026-03-16T19:05:09.726Z,NMEA0183,,"$MTW,18.2,C*18"
2026-03-16T19:05:09.726Z,NMEA0183,,"$WIMWV,125.6,R,12.1,N,A*11"
2026-03-16T19:05:09.727Z,NMEA0183,,"$WIMWV,125.6,R,12.1,N,A*11"
2026-03-16T19:05:10.723Z,NMEA0183,,"$GPRMC,180510.72,A,4004.4073,N,01500.7853,E,4.4,52.9,160326,2.5,W*76"
2026-03-16T19:05:10.724Z,NMEA0183,,"$GPGGA,180510.72,4004.4073,N,01500.7853,E,1,11,0.9,10.0,M,0.0,M,,*61"
2026-03-16T19:05:10.724Z,NMEA0183,,"$GPGSA,A,3,12,13,28,15,5,27,7,11,16,6,30,,1.9,1.7,1.2*05"
2026-03-16T19:05:10.724Z,NMEA0183,,"$GPGSV,3,1,11,12,10,253,27,13,66,166,23,28,16,335,24,15,5,271,42*47"
2026-03-16T19:05:10.724Z,NMEA0183,,"$GPGSV,3,2,11,5,89,352,43,27,24,217,20,7,31,221,35,11,58,237,36*76"
2026-03-16T19:05:10.724Z,NMEA0183,,"$GPGSV,3,3,11,16,19,146,25,6,38,238,22,30,83,124,37*7D"
2026-03-16T19:05:10.725Z,NMEA0183,,"$GPVTG,52.9,T,55.4,M,4.4,N,8.1,K,A*20"
2026-03-16T19:05:10.725Z,NMEA0183,,"$IIHDG,52.9,,,2.5,W*09"
2026-03-16T19:05:10.725Z,NMEA0183,,"$VHW,52.9,T,55.4,M,4.4,N,8.1,K*56"
2026-03-16T19:05:10.725Z,NMEA0183,,"$MTW,18.2,C*18"
2026-03-16T19:05:10.725Z,NMEA0183,,"$WIMWV,124.2,R,11.7,N,A*11"
2026-03-16T19:05:10.725Z,NMEA0183,,"$WIMWV,124.2,R,11.7,N,A*11"
2026-03-16T19:05:11.725Z,NMEA0183,,"$GPRMC,180511.72,A,4004.4080,N,01500.7866,E,4.4,53.5,160326,2.5,W*70"
2026-03-16T19:05:11.726Z,NMEA0183,,"$GPGGA,180511.72,4004.4080,N,01500.7866,E,1,11,0.8,10.0,M,0.0,M,,*6B"
2026-03-16T19:05:11.726Z,NMEA0183,,"$GPGSA,A,3,5,9,30,24,15,29,31,2,22,25,19,,1.6,1.4,2.0*0B"
2026-03-16T19:05:11.726Z,NMEA0183,,"$GPGSV,3,1,11,5,51,306,50,9,18,122,45,30,49,260,30,24,0,31,44*77"
2026-03-16T19:05:11.726Z,NMEA0183,,"$GPGSV,3,2,11,15,47,322,29,29,59,353,40,31,45,242,28,2,51,338,43*45"
2026-03-16T19:05:11.727Z,NMEA0183,,"$GPGSV,3,3,11,22,81,314,27,25,48,158,38,19,8,125,46*7B"
2026-03-16T19:05:11.727Z,NMEA0183,,"$GPVTG,53.5,T,56.0,M,4.4,N,8.2,K,A*29"
2026-03-16T19:05:11.727Z,NMEA0183,,"$IIHDG,53.5,,,2.5,W*04"
2026-03-16T19:05:11.727Z,NMEA0183,,"$VHW,53.5,T,56.0,M,4.4,N,8.2,K*5F"
2026-03-16T19:05:11.728Z,NMEA0183,,"$MTW,18.2,C*18"
2026-03-16T19:05:11.728Z,NMEA0183,,"$WIMWV,132.8,R,11.5,N,A*1E"
2026-03-16T19:05:11.728Z,NMEA0183,,"$WIMWV,132.8,R,11.5,N,A*1E"
2026-03-16T19:05:11.778Z,NMEA0183,,"$IIXDR,P,0.97082,B,Barometer,C,22.57,C,TempAir*79"
2026-03-16T19:05:12.725Z,NMEA0183,,"$GPRMC,180512.72,A,4004.4088,N,01500.7879,E,4.5,52.9,160326,2.5,W*79"
2026-03-16T19:05:12.725Z,NMEA0183,,"$GPGGA,180512.72,4004.4088,N,01500.7879,E,1,11,1.5,10.0,M,0.0,M,,*62"
2026-03-16T19:05:12.725Z,NMEA0183,,"$GPGSA,A,3,13,7,3,12,1,21,9,5,15,28,30,,1.3,1.3,1.3*06"
2026-03-16T19:05:12.725Z,NMEA0183,,"$GPGSV,3,1,11,13,30,8,26,7,18,343,47,3,76,250,38,12,60,267,50*72"
2026-03-16T19:05:12.725Z,NMEA0183,,"$GPGSV,3,2,11,1,38,110,41,21,7,341,23,9,22,26,21,5,64,88,26*79"
2026-03-16T19:05:12.726Z,NMEA0183,,"$GPGSV,3,3,11,15,88,171,34,28,2,354,35,30,48,114,48*76"
2026-03-16T19:05:12.726Z,NMEA0183,,"$GPVTG,52.9,T,55.4,M,4.5,N,8.4,K,A*24"
2026-03-16T19:05:12.726Z,NMEA0183,,"$IIHDG,52.9,,,2.5,W*09"
2026-03-16T19:05:12.726Z,NMEA0183,,"$VHW,52.9,T,55.4,M,4.5,N,8.4,K*52"
2026-03-16T19:05:12.726Z,NMEA0183,,"$MTW,18.2,C*18"
2026-03-16T19:05:12.726Z,NMEA0183,,"$WIMWV,121.4,R,10.8,N,A*1C"
2026-03-16T19:05:12.726Z,NMEA0183,,"$WIMWV,121.4,R,10.8,N,A*1C"
2026-03-16T19:05:13.727Z,NMEA0183,,"$GPRMC,180513.72,A,4004.4095,N,01500.7892,E,4.5,51.2,160326,2.5,W*79"
2026-03-16T19:05:13.728Z,NMEA0183,,"$GPGGA,180513.72,4004.4095,N,01500.7892,E,1,12,1.6,10.0,M,0.0,M,,*6A"
2026-03-16T19:05:13.728Z,NMEA0183,,"$GPGSA,A,3,2,9,5,22,18,19,11,24,30,26,10,29,1.8,1.9,1.2*04"
2026-03-16T19:05:13.728Z,NMEA0183,,"$GPGSV,3,1,12,2,17,167,43,9,81,77,28,5,67,333,25,22,29,161,40*78"
2026-03-16T19:05:13.729Z,NMEA0183,,"$GPGSV,3,2,12,18,31,214,27,19,5,60,40,11,87,295,47,24,69,142,49*7C"
2026-03-16T19:05:13.729Z,NMEA0183,,"$GPGSV,3,3,12,30,18,50,36,26,45,237,47,10,18,300,46,29,67,156,29*4A"
2026-03-16T19:05:13.729Z,NMEA0183,,"$GPVTG,51.2,T,53.7,M,4.5,N,8.3,K,A*2E"
2026-03-16T19:05:13.730Z,NMEA0183,,"$IIHDG,51.2,,,2.5,W*01"
2026-03-16T19:05:13.730Z,NMEA0183,,"$VHW,51.2,T,53.7,M,4.5,N,8.3,K*58"
2026-03-16T19:05:13.730Z,NMEA0183,,"$MTW,18.2,C*18"
2026-03-16T19:05:13.731Z,NMEA0183,,"$WIMWV,130.4,R,8.1,N,A*2C"
2026-03-16T19:05:13.731Z,NMEA0183,,"$WIMWV,130.4,R,8.1,N,A*2C"
2026-03-16T19:05:14.272Z,NMEA0183,,"$IIXDR,P,0.97082,B,Barometer,C,22.55,C,TempAir*7B"
2026-03-16T19:05:14.728Z,NMEA0183,,"$GPRMC,180514.72,A,4004.4103,N,01500.7904,E,4.5,50.9,160326,2.5,W*74"
2026-03-16T19:05:14.729Z,NMEA0183,,"$GPGGA,180514.72,4004.4103,N,01500.7904,E,1,12,1.7,10.0,M,0.0,M,,*6C"
2026-03-16T19:05:14.729Z,NMEA0183,,"$GPGSA,A,3,1,9,23,29,3,10,22,25,32,14,8,18,2.3,1.3,1.7*35"
2026-03-16T19:05:14.729Z,NMEA0183,,"$GPGSV,3,1,12,1,43,294,44,9,21,247,30,23,64,107,34,29,4,89,35*73"
2026-03-16T19:05:14.730Z,NMEA0183,,"$GPGSV,3,2,12,3,88,72,45,10,65,176,21,22,0,32,35,25,52,257,46*78"
2026-03-16T19:05:14.730Z,NMEA0183,,"$GPGSV,3,3,12,32,44,296,45,14,68,299,20,8,74,223,49,18,20,297,22*4E"
2026-03-16T19:05:14.730Z,NMEA0183,,"$GPVTG,50.9,T,53.4,M,4.5,N,8.3,K,A*27"
2026-03-16T19:05:14.730Z,NMEA0183,,"$IIHDG,50.9,,,2.5,W*0B"
2026-03-16T19:05:14.730Z,NMEA0183,,"$VHW,50.9,T,53.4,M,4.5,N,8.3,K*51"
2026-03-16T19:05:14.731Z,NMEA0183,,"$MTW,18.1,C*1B"
2026-03-16T19:05:14.731Z,NMEA0183,,"$WIMWV,121.2,R,7.9,N,A*2D"
2026-03-16T19:05:14.731Z,NMEA0183,,"$WIMWV,121.2,R,7.9,N,A*2D"
2026-03-16T19:05:15.729Z,NMEA0183,,"$GPRMC,180515.72,A,4004.4111,N,01500.7917,E,4.6,50.2,160326,2.5,W*7C"
2026-03-16T19:05:15.730Z,NMEA0183,,"$GPGGA,180515.72,4004.4111,N,01500.7917,E,1,06,1.1,10.0,M,0.0,M,,*6F"
2026-03-16T19:05:15.730Z,NMEA0183,,"$GPGSA,A,3,11,17,15,2,23,1,,,,,,,1.9,1.8,1.9*3B"
2026-03-16T19:05:15.730Z,NMEA0183,,"$GPGSV,2,1,6,11,57,132,41,17,25,332,42,15,3,136,23,2,6,92,32*42"
2026-03-16T19:05:15.730Z,NMEA0183,,"$GPGSV,2,2,6,23,45,292,30,1,70,22,24*45"
2026-03-16T19:05:15.731Z,NMEA0183,,"$GPVTG,50.2,T,52.7,M,4.6,N,8.6,K,A*28"
2026-03-16T19:05:15.731Z,NMEA0183,,"$IIHDG,50.2,,,2.5,W*00"
2026-03-16T19:05:15.731Z,NMEA0183,,"$VHW,50.2,T,52.7,M,4.6,N,8.6,K*5E"
2026-03-16T19:05:15.731Z,NMEA0183,,"$MTW,18.1,C*1B"
2026-03-16T19:05:15.732Z,NMEA0183,,"$WIMWV,121.5,R,8.7,N,A*2B"
2026-03-16T19:05:15.732Z,NMEA0183,,"$WIMWV,121.5,R,8.7,N,A*2B"
2026-03-16T19:05:16.731Z,NMEA0183,,"$GPRMC,180516.72,A,4004.4119,N,01500.7930,E,4.5,49.5,160326,2.5,W*7E"
2026-03-16T19:05:16.731Z,NMEA0183,,"$GPGGA,180516.72,4004.4119,N,01500.7930,E,1,11,0.9,10.0,M,0.0,M,,*6E"
2026-03-16T19:05:16.731Z,NMEA0183,,"$GPGSA,A,3,7,21,8,15,2,19,3,18,31,27,24,,1.1,1.4,1.7*38"
2026-03-16T19:05:16.732Z,NMEA0183,,"$GPGSV,3,1,11,7,20,130,32,21,86,150,38,8,35,225,31,15,4,260,41*47"
2026-03-16T19:05:16.732Z,NMEA0183,,"$GPGSV,3,2,11,2,40,324,36,19,19,98,45,3,66,180,23,18,75,44,49*73"
2026-03-16T19:05:16.732Z,NMEA0183,,"$GPGSV,3,3,11,31,89,59,24,27,5,345,37,24,84,139,31*45"
2026-03-16T19:05:16.733Z,NMEA0183,,"$GPVTG,49.5,T,52.0,M,4.5,N,8.3,K,A*26"
2026-03-16T19:05:16.733Z,NMEA0183,,"$IIHDG,49.5,,,2.5,W*0F"
2026-03-16T19:05:16.733Z,NMEA0183,,"$VHW,49.5,T,52.0,M,4.5,N,8.3,K*50"
2026-03-16T19:05:16.733Z,NMEA0183,,"$MTW,18.2,C*18"
2026-03-16T19:05:16.734Z,NMEA0183,,"$WIMWV,136.1,R,9.5,N,A*2A"
2026-03-16T19:05:16.734Z,NMEA0183,,"$WIMWV,136.1,R,9.5,N,A*2A"
2026-03-16T19:05:17.312Z,NMEA0183,,"$IIXDR,P,0.97082,B,Barometer,C,22.51,C,TempAir*7F"
2026-03-16T19:05:17.739Z,NMEA0183,,"$GPRMC,180517.72,A,4004.4127,N,01500.7942,E,4.5,48.2,160326,2.5,W*71"
2026-03-16T19:05:17.740Z,NMEA0183,,"$GPGGA,180517.72,4004.4127,N,01500.7942,E,1,09,1.8,10.0,M,0.0,M,,*6E"
2026-03-16T19:05:17.740Z,NMEA0183,,"$GPGSA,A,3,20,13,11,8,26,1,9,4,6,,,,1.9,0.8,2.0*06"
2026-03-16T19:05:17.740Z,NMEA0183,,"$GPGSV,3,1,9,20,73,357,29,13,63,247,44,11,47,114,49,8,51,164,29*76"
2026-03-16T19:05:17.741Z,NMEA0183,,"$GPGSV,3,2,9,26,19,348,35,1,52,185,42,9,4,140,44,4,70,60,29*7E"
2026-03-16T19:05:17.741Z,NMEA0183,,"$GPGSV,3,3,9,6,13,247,36*40"
2026-03-16T19:05:17.741Z,NMEA0183,,"$GPVTG,48.2,T,50.7,M,4.5,N,8.3,K,A*25"
2026-03-16T19:05:17.741Z,NMEA0183,,"$IIHDG,48.2,,,2.5,W*09"
2026-03-16T19:05:17.742Z,NMEA0183,,"$VHW,48.2,T,50.7,M,4.5,N,8.3,K*53"
2026-03-16T19:05:17.742Z,NMEA0183,,"$MTW,18.2,C*18"
2026-03-16T19:05:17.742Z,NMEA0183,,"$WIMWV,106.6,R,7.7,N,A*22"
2026-03-16T19:05:17.743Z,NMEA0183,,"$WIMWV,106.6,R,7.7,N,A*22"
2026-03-16T19:05:18.733Z,NMEA0183,,"$GPRMC,180518.73,A,4004.4135,N,01500.7954,E,4.3,48.1,160326,2.5,W*7E"
2026-03-16T19:05:18.733Z,NMEA0183,,"$GPGGA,180518.73,4004.4135,N,01500.7954,E,1,09,0.9,10.0,M,0.0,M,,*64"
2026-03-16T19:05:18.734Z,NMEA0183,,"$GPGSA,A,3,17,12,13,28,20,3,11,23,18,,,,2.5,1.6,0.9*0F"
2026-03-16T19:05:18.734Z,NMEA0183,,"$GPGSV,3,1,9,17,4,126,42,12,15,286,32,13,25,162,23,28,61,57,27*42"
2026-03-16T19:05:18.734Z,NMEA0183,,"$GPGSV,3,2,9,20,88,301,31,3,2,322,31,11,7,246,37,23,54,285,41*7A"
2026-03-16T19:05:18.734Z,NMEA0183,,"$GPGSV,3,3,9,18,47,226,48*70"
2026-03-16T19:05:18.735Z,NMEA0183,,"$GPVTG,48.1,T,50.6,M,4.3,N,8.0,K,A*22"
2026-03-16T19:05:18.735Z,NMEA0183,,"$IIHDG,48.1,,,2.5,W*0A"
2026-03-16T19:05:18.735Z,NMEA0183,,"$VHW,48.1,T,50.6,M,4.3,N,8.0,K*54"
2026-03-16T19:05:18.735Z,NMEA0183,,"$MTW,18.2,C*18"
2026-03-16T19:05:18.736Z,NMEA0183,,"$WIMWV,136.3,R,7.9,N,A*2A"
2026-03-16T19:05:18.736Z,NMEA0183,,"$WIMWV,136.3,R,7.9,N,A*2A"
2026-03-16T19:05:19.510Z,NMEA0183,,"$IIXDR,P,0.97063,B,Barometer,C,22.47,C,TempAir*77"
2026-03-16T19:05:19.735Z,NMEA0183,,"$GPRMC,180519.73,A,4004.4144,N,01500.7966,E,4.1,49.9,160326,2.5,W*73"
2026-03-16T19:05:19.736Z,NMEA0183,,"$GPGGA,180519.73,4004.4144,N,01500.7966,E,1,07,1.8,10.0,M,0.0,M,,*6C"
2026-03-16T19:05:19.736Z,NMEA0183,,"$GPGSA,A,3,15,13,11,27,31,17,2,,,,,,1.2,0.7,1.1*03"
2026-03-16T19:05:19.737Z,NMEA0183,,"$GPGSV,2,1,7,15,6,330,33,13,1,194,26,11,64,193,46,27,34,190,27*40"
2026-03-16T19:05:19.737Z,NMEA0183,,"$GPGSV,2,2,7,31,64,174,33,17,39,111,42,2,64,103,41*40"
2026-03-16T19:05:19.737Z,NMEA0183,,"$GPVTG,49.9,T,52.4,M,4.1,N,7.7,K,A*21"
2026-03-16T19:05:19.738Z,NMEA0183,,"$IIHDG,49.9,,,2.5,W*03"
2026-03-16T19:05:19.738Z,NMEA0183,,"$VHW,49.9,T,52.4,M,4.1,N,7.7,K*57"
2026-03-16T19:05:19.739Z,NMEA0183,,"$MTW,18.2,C*18"
2026-03-16T19:05:19.739Z,NMEA0183,,"$WIMWV,137.3,R,8.3,N,A*2E"
2026-03-16T19:05:19.740Z,NMEA0183,,"$WIMWV,137.3,R,8.3,N,A*2E"
2026-03-16T19:05:20.734Z,NMEA0183,,"$GPRMC,180520.73,A,4004.4151,N,01500.7978,E,4.2,50.0,160326,2.5,W*70"
2026-03-16T19:05:20.734Z,NMEA0183,,"$GPGGA,180520.73,4004.4151,N,01500.7978,E,1,12,1.8,10.0,M,0.0,M,,*69"
2026-03-16T19:05:20.734Z,NMEA0183,,"$GPGSA,A,3,2,19,16,20,7,31,28,12,24,30,32,8,2.2,1.9,1.2*06"
2026-03-16T19:05:20.734Z,NMEA0183,,"$GPGSV,3,1,12,2,78,86,31,19,22,157,28,16,56,353,44,20,51,100,35*78"
2026-03-16T19:05:20.734Z,NMEA0183,,"$GPGSV,3,2,12,7,39,189,46,31,63,268,20,28,90,307,34,12,62,149,38*4D"
2026-03-16T19:05:20.735Z,NMEA0183,,"$GPGSV,3,3,12,24,34,138,29,30,69,68,29,32,70,357,38,8,48,23,27*4F"
2026-03-16T19:05:20.735Z,NMEA0183,,"$GPVTG,50.0,T,52.5,M,4.2,N,7.7,K,A*22"
2026-03-16T19:05:20.735Z,NMEA0183,,"$IIHDG,50.0,,,2.5,W*02"
2026-03-16T19:05:20.735Z,NMEA0183,,"$VHW,50.0,T,52.5,M,4.2,N,7.7,K*54"
2026-03-16T19:05:20.735Z,NMEA0183,,"$MTW,18.2,C*18"
2026-03-16T19:05:20.735Z,NMEA0183,,"$WIMWV,144.8,R,7.8,N,A*25"
2026-03-16T19:05:20.735Z,NMEA0183,,"$WIMWV,144.8,R,7.8,N,A*25"
2026-03-16T19:05:21.919Z,NMEA0183,,"$GPRMC,180521.73,A,4004.4158,N,01500.7989,E,4.3,50.8,160326,2.5,W*7F"
2026-03-16T19:05:21.919Z,NMEA0183,,"$GPGGA,180521.73,4004.4158,N,01500.7989,E,1,09,1.3,10.0,M,0.0,M,,*6E"
2026-03-16T19:05:21.920Z,NMEA0183,,"$GPGSA,A,3,24,11,19,5,32,16,14,25,7,,,,1.2,1.5,1.4*38"
2026-03-16T19:05:21.920Z,NMEA0183,,"$GPGSV,3,1,9,24,21,214,26,11,6,280,49,19,17,131,22,5,83,356,47*45"
2026-03-16T19:05:21.920Z,NMEA0183,,"$GPGSV,3,2,9,32,36,244,28,16,49,109,27,14,47,39,42,25,72,9,47*78"
2026-03-16T19:05:21.920Z,NMEA0183,,"$GPGSV,3,3,9,7,80,98,31*7C"
2026-03-16T19:05:21.920Z,NMEA0183,,"$GPVTG,50.8,T,53.3,M,4.3,N,7.9,K,A*22"
2026-03-16T19:05:21.920Z,NMEA0183,,"$IIHDG,50.8,,,2.5,W*0A"
2026-03-16T19:05:21.920Z,NMEA0183,,"$VHW,50.8,T,53.3,M,4.3,N,7.9,K*54"
2026-03-16T19:05:21.920Z,NMEA0183,,"$MTW,18.2,C*18"
2026-03-16T19:05:21.920Z,NMEA0183,,"$WIMWV,133.0,R,8.6,N,A*2C"
2026-03-16T19:05:21.921Z,NMEA0183,,"$WIMWV,133.0,R,8.6,N,A*2C"
2026-03-16T19:05:22.153Z,NMEA0183,,"$IIXDR,P,0.97095,B,Barometer,C,22.45,C,TempAir*7C"
2026-03-16T19:05:22.737Z,NMEA0183,,"$GPRMC,180522.73,A,4004.4166,N,01500.8001,E,4.3,52.2,160326,2.5,W*7F"
2026-03-16T19:05:22.737Z,NMEA0183,,"$GPGGA,180522.73,4004.4166,N,01500.8001,E,1,11,0.8,10.0,M,0.0,M,,*65"
2026-03-16T19:05:22.738Z,NMEA0183,,"$GPGSA,A,3,27,11,4,21,1,29,13,8,24,16,20,,2.4,0.7,1.1*02"
2026-03-16T19:05:22.738Z,NMEA0183,,"$GPGSV,3,1,11,27,66,194,31,11,12,282,42,4,60,316,27,21,26,177,44*48"
2026-03-16T19:05:22.738Z,NMEA0183,,"$GPGSV,3,2,11,1,86,52,45,29,73,236,24,13,82,53,25,8,86,271,29*7F"
2026-03-16T19:05:22.739Z,NMEA0183,,"$GPGSV,3,3,11,24,85,335,32,16,8,89,32,20,88,72,32*7F"
2026-03-16T19:05:22.739Z,NMEA0183,,"$GPVTG,52.2,T,54.7,M,4.3,N,8.0,K,A*2F"
2026-03-16T19:05:22.739Z,NMEA0183,,"$IIHDG,52.2,,,2.5,W*02"
2026-03-16T19:05:22.739Z,NMEA0183,,"$VHW,52.2,T,54.7,M,4.3,N,8.0,K*59"
2026-03-16T19:05:22.740Z,NMEA0183,,"$MTW,18.2,C*18"
2026-03-16T19:05:22.740Z,NMEA0183,,"$WIMWV,111.3,R,10.1,N,A*11"
2026-03-16T19:05:22.740Z,NMEA0183,,"$WIMWV,111.3,R,10.1,N,A*11"
2026-03-16T19:05:23.738Z,NMEA0183,,"$GPRMC,180523.73,A,4004.4173,N,01500.8014,E,4.4,53.3,160326,2.5,W*79"
2026-03-16T19:05:23.738Z,NMEA0183,,"$GPGGA,180523.73,4004.4173,N,01500.8014,E,1,07,1.0,10.0,M,0.0,M,,*6A"
2026-03-16T19:05:23.739Z,NMEA0183,,"$GPGSA,A,3,6,5,2,16,19,17,24,,,,,,1.9,1.5,1.9*08"
2026-03-16T19:05:23.739Z,NMEA0183,,"$GPGSV,2,1,7,6,68,343,28,5,48,233,29,2,65,14,44,16,15,238,35*43"
2026-03-16T19:05:23.739Z,NMEA0183,,"$GPGSV,2,2,7,19,75,198,37,17,20,147,30,24,15,150,37*77"
2026-03-16T19:05:23.739Z,NMEA0183,,"$GPVTG,53.3,T,55.8,M,4.4,N,8.1,K,A*27"
2026-03-16T19:05:23.740Z,NMEA0183,,"$IIHDG,53.3,,,2.5,W*02"
2026-03-16T19:05:23.740Z,NMEA0183,,"$VHW,53.3,T,55.8,M,4.4,N,8.1,K*51"
2026-03-16T19:05:23.740Z,NMEA0183,,"$MTW,18.2,C*18"
2026-03-16T19:05:23.740Z,NMEA0183,,"$WIMWV,105.4,R,6.5,N,A*20"
2026-03-16T19:05:23.741Z,NMEA0183,,"$WIMWV,105.4,R,6.5,N,A*20"
2026-03-16T19:05:25.085Z,NMEA0183,,"$IIXDR,P,0.97095,B,Barometer,C,22.40,C,TempAir*79"
2026-03-16T19:05:25.087Z,NMEA0183,,"$GPRMC,180524.73,A,4004.4180,N,01500.8026,E,4.6,53.2,160326,2.5,W*70"
2026-03-16T19:05:25.087Z,NMEA0183,,"$GPGGA,180524.73,4004.4180,N,01500.8026,E,1,11,1.5,10.0,M,0.0,M,,*62"
2026-03-16T19:05:25.087Z,NMEA0183,,"$GPGSA,A,3,25,15,10,3,29,1,32,5,14,28,12,,1.4,0.7,1.6*04"
2026-03-16T19:05:25.087Z,NMEA0183,,"$GPGSV,3,1,11,25,25,172,34,15,45,311,34,10,30,15,36,3,8,228,38*42"
2026-03-16T19:05:25.087Z,NMEA0183,,"$GPGSV,3,2,11,29,21,215,46,1,7,171,20,32,86,191,33,5,8,31,42*48"
2026-03-16T19:05:25.087Z,NMEA0183,,"$GPGSV,3,3,11,14,19,300,26,28,79,12,25,12,10,61,47*45"
2026-03-16T19:05:25.087Z,NMEA0183,,"$GPVTG,53.2,T,55.7,M,4.6,N,8.5,K,A*2F"
2026-03-16T19:05:25.087Z,NMEA0183,,"$IIHDG,53.2,,,2.5,W*03"
2026-03-16T19:05:25.087Z,NMEA0183,,"$VHW,53.2,T,55.7,M,4.6,N,8.5,K*59"
2026-03-16T19:05:25.088Z,NMEA0183,,"$MTW,18.3,C*19"
2026-03-16T19:05:25.088Z,NMEA0183,,"$WIMWV,110.7,R,7.1,N,A*22"
2026-03-16T19:05:25.088Z,NMEA0183,,"$WIMWV,110.7,R,7.1,N,A*22"
2026-03-16T19:05:26.158Z,NMEA0183,,"$GPRMC,180525.73,A,4004.4188,N,01500.8040,E,4.8,54.6,160326,2.5,W*74"
2026-03-16T19:05:26.158Z,NMEA0183,,"$GPGGA,180525.73,4004.4188,N,01500.8040,E,1,11,1.8,10.0,M,0.0,M,,*66"
2026-03-16T19:05:26.158Z,NMEA0183,,"$GPGSA,A,3,7,21,30,27,18,23,2,8,3,17,32,,2.2,1.1,1.0*37"
2026-03-16T19:05:26.158Z,NMEA0183,,"$GPGSV,3,1,11,7,83,343,36,21,59,202,28,30,54,276,44,27,48,343,20*4D"
2026-03-16T19:05:26.159Z,NMEA0183,,"$GPGSV,3,2,11,18,87,42,47,23,77,71,28,2,61,128,41,8,54,11,25*43"
2026-03-16T19:05:26.159Z,NMEA0183,,"$GPGSV,3,3,11,3,21,167,23,17,32,9,29,32,22,198,44*7C"
2026-03-16T19:05:26.159Z,NMEA0183,,"$GPVTG,54.6,T,57.1,M,4.8,N,8.8,K,A*2B"
2026-03-16T19:05:26.159Z,NMEA0183,,"$IIHDG,54.6,,,2.5,W*00"
2026-03-16T19:05:26.159Z,NMEA0183,,"$VHW,54.6,T,57.1,M,4.8,N,8.8,K*5D"
2026-03-16T19:05:26.159Z,NMEA0183,,"$MTW,18.2,C*18"
2026-03-16T19:05:26.159Z,NMEA0183,,"$WIMWV,116.9,R,8.1,N,A*25"
2026-03-16T19:05:26.159Z,NMEA0183,,"$WIMWV,116.9,R,8.1,N,A*25"
2026-03-16T19:05:26.744Z,NMEA0183,,"$GPRMC,180526.73,A,4004.4196,N,01500.8054,E,4.6,54.3,160326,2.5,W*76"
2026-03-16T19:05:26.744Z,NMEA0183,,"$GPGGA,180526.73,4004.4196,N,01500.8054,E,1,10,1.7,10.0,M,0.0,M,,*61"
2026-03-16T19:05:26.745Z,NMEA0183,,"$GPGSA,A,3,25,3,27,21,11,17,15,12,9,4,,,2.1,1.0,1.0*0F"
2026-03-16T19:05:26.745Z,NMEA0183,,"$GPGSV,3,1,10,25,81,328,32,3,5,218,31,27,69,194,29,21,73,70,36*4B"
2026-03-16T19:05:26.745Z,NMEA0183,,"$GPGSV,3,2,10,11,84,349,29,17,5,236,26,15,59,235,26,12,88,245,50*4D"
2026-03-16T19:05:26.745Z,NMEA0183,,"$GPGSV,3,3,10,9,17,306,22,4,45,191,40*7A"
2026-03-16T19:05:26.746Z,NMEA0183,,"$GPVTG,54.3,T,56.8,M,4.6,N,8.5,K,A*25"
2026-03-16T19:05:26.746Z,NMEA0183,,"$IIHDG,54.3,,,2.5,W*05"
2026-03-16T19:05:26.746Z,NMEA0183,,"$VHW,54.3,T,56.8,M,4.6,N,8.5,K*53"
2026-03-16T19:05:26.746Z,NMEA0183,,"$MTW,18.2,C*18"
2026-03-16T19:05:26.747Z,NMEA0183,,"$WIMWV,111.5,R,10.6,N,A*10"
2026-03-16T19:05:26.747Z,NMEA0183,,"$WIMWV,111.5,R,10.6,N,A*10"
2026-03-16T19:05:27.241Z,NMEA0183,,"$IIXDR,P,0.97088,B,Barometer,C,22.39,C,TempAir*7B"
2026-03-16T19:05:27.741Z,NMEA0183,,"$GPRMC,180527.73,A,4004.4203,N,01500.8067,E,4.8,53.7,160326,2.5,W*75"
2026-03-16T19:05:27.742Z,NMEA0183,,"$GPGGA,180527.73,4004.4203,N,01500.8067,E,1,07,1.8,10.0,M,0.0,M,,*66"
2026-03-16T19:05:27.742Z,NMEA0183,,"$GPGSA,A,3,3,29,1,20,7,27,28,,,,,,1.7,0.7,2.5*07"
2026-03-16T19:05:27.742Z,NMEA0183,,"$GPGSV,2,1,7,3,48,135,44,29,49,160,30,1,43,65,46,20,41,24,30*42"
2026-03-16T19:05:27.742Z,NMEA0183,,"$GPGSV,2,2,7,7,62,282,37,27,17,248,26,28,4,313,49*7A"
2026-03-16T19:05:27.742Z,NMEA0183,,"$GPVTG,53.7,T,56.2,M,4.8,N,8.9,K,A*2E"
2026-03-16T19:05:27.742Z,NMEA0183,,"$IIHDG,53.7,,,2.5,W*06"
2026-03-16T19:05:27.743Z,NMEA0183,,"$VHW,53.7,T,56.2,M,4.8,N,8.9,K*58"
2026-03-16T19:05:27.743Z,NMEA0183,,"$MTW,18.2,C*18"
2026-03-16T19:05:27.743Z,NMEA0183,,"$WIMWV,140.3,R,7.1,N,A*23"
2026-03-16T19:05:27.743Z,NMEA0183,,"$WIMWV,140.3,R,7.1,N,A*23"
2026-03-16T19:05:28.742Z,NMEA0183,,"$GPRMC,180528.73,A,4004.4211,N,01500.8081,E,4.8,55.7,160326,2.5,W*77"
2026-03-16T19:05:28.742Z,NMEA0183,,"$GPGGA,180528.73,4004.4211,N,01500.8081,E,1,08,1.3,10.0,M,0.0,M,,*66"
2026-03-16T19:05:28.743Z,NMEA0183,,"$GPGSA,A,3,21,32,13,30,15,19,23,17,,,,,1.5,1.5,1.6*3D"
2026-03-16T19:05:28.743Z,NMEA0183,,"$GPGSV,2,1,8,21,45,174,22,32,22,138,32,13,60,262,28,30,19,281,42*46"
2026-03-16T19:05:28.743Z,NMEA0183,,"$GPGSV,2,2,8,15,62,55,47,19,7,293,31,23,47,24,33,17,58,200,47*79"
2026-03-16T19:05:28.743Z,NMEA0183,,"$GPVTG,55.7,T,58.2,M,4.8,N,9.0,K,A*2E"
2026-03-16T19:05:28.743Z,NMEA0183,,"$IIHDG,55.7,,,2.5,W*00"
2026-03-16T19:05:28.744Z,NMEA0183,,"$VHW,55.7,T,58.2,M,4.8,N,9.0,K*58"
2026-03-16T19:05:28.744Z,NMEA0183,,"$MTW,18.2,C*18"
2026-03-16T19:05:28.744Z,NMEA0183,,"$WIMWV,138.6,R,8.3,N,A*24"
2026-03-16T19:05:28.745Z,NMEA0183,,"$WIMWV,138.6,R,8.3,N,A*24"
2026-03-16T19:05:29.743Z,NMEA0183,,"$GPRMC,180529.74,A,4004.4219,N,01500.8096,E,4.7,54.1,160326,2.5,W*77"
2026-03-16T19:05:29.744Z,NMEA0183,,"$GPGGA,180529.74,4004.4219,N,01500.8096,E,1,08,1.6,10.0,M,0.0,M,,*6B"
2026-03-16T19:05:29.744Z,NMEA0183,,"$GPGSA,A,3,20,5,31,13,32,17,19,15,,,,,1.5,1.8,1.3*01"
2026-03-16T19:05:29.744Z,NMEA0183,,"$GPGSV,2,1,8,20,42,213,41,5,0,189,24,31,39,265,42,13,25,339,32*42"
2026-03-16T19:05:29.744Z,NMEA0183,,"$GPGSV,2,2,8,32,39,157,28,17,73,197,24,19,55,306,30,15,14,34,28*7A"
2026-03-16T19:05:29.744Z,NMEA0183,,"$GPVTG,54.1,T,56.6,M,4.7,N,8.7,K,A*2A"
2026-03-16T19:05:29.744Z,NMEA0183,,"$IIHDG,54.1,,,2.5,W*07"
2026-03-16T19:05:29.744Z,NMEA0183,,"$VHW,54.1,T,56.6,M,4.7,N,8.7,K*5C"
2026-03-16T19:05:29.745Z,NMEA0183,,"$MTW,18.2,C*18"
2026-03-16T19:05:29.745Z,NMEA0183,,"$WIMWV,144.2,R,9.5,N,A*2C"
2026-03-16T19:05:29.745Z,NMEA0183,,"$WIMWV,144.2,R,9.5,N,A*2C"
2026-03-16T19:05:30.007Z,NMEA0183,,"$IIXDR,P,0.97082,B,Barometer,C,22.36,C,TempAir*7E"
2026-03-16T19:05:30.753Z,NMEA0183,,"$GPRMC,180530.74,A,4004.4226,N,01500.8110,E,4.6,54.7,160326,2.5,W*7B"
2026-03-16T19:05:30.753Z,NMEA0183,,"$GPGGA,180530.74,4004.4226,N,01500.8110,E,1,07,1.2,10.0,M,0.0,M,,*6B"
2026-03-16T19:05:30.754Z,NMEA0183,,"$GPGSA,A,3,16,27,24,1,23,18,7,,,,,,1.3,1.3,2.4*3E"
2026-03-16T19:05:30.754Z,NMEA0183,,"$GPGSV,2,1,7,16,67,232,25,27,53,185,41,24,68,81,28,1,22,270,42*4C"
2026-03-16T19:05:30.754Z,NMEA0183,,"$GPGSV,2,2,7,23,59,200,45,18,47,98,37,7,43,290,30*77"
2026-03-16T19:05:30.754Z,NMEA0183,,"$GPVTG,54.7,T,57.2,M,4.6,N,8.6,K,A*29"
2026-03-16T19:05:30.755Z,NMEA0183,,"$IIHDG,54.7,,,2.5,W*01"
2026-03-16T19:05:30.755Z,NMEA0183,,"$VHW,54.7,T,57.2,M,4.6,N,8.6,K*5F"
2026-03-16T19:05:30.755Z,NMEA0183,,"$MTW,18.2,C*18"
2026-03-16T19:05:30.755Z,NMEA0183,,"$WIMWV,146.0,R,10.9,N,A*18"
2026-03-16T19:05:30.756Z,NMEA0183,,"$WIMWV,146.0,R,10.9,N,A*18"
2026-03-16T19:05:31.745Z,NMEA0183,,"$GPRMC,180531.74,A,4004.4234,N,01500.8124,E,4.7,54.2,160326,2.5,W*7A"
2026-03-16T19:05:31.745Z,NMEA0183,,"$GPGGA,180531.74,4004.4234,N,01500.8124,E,1,06,1.3,10.0,M,0.0,M,,*6E"
2026-03-16T19:05:31.746Z,NMEA0183,,"$GPGSA,A,3,1,7,17,11,24,9,,,,,,,1.8,1.3,1.2*05"
2026-03-16T19:05:31.746Z,NMEA0183,,"$GPGSV,2,1,6,1,24,106,33,7,24,127,25,17,7,289,20,11,4,171,41*48"
2026-03-16T19:05:31.746Z,NMEA0183,,"$GPGSV,2,2,6,24,69,13,42,9,26,72,25*7D"
2026-03-16T19:05:31.746Z,NMEA0183,,"$GPVTG,54.2,T,56.7,M,4.7,N,8.7,K,A*28"
2026-03-16T19:05:31.746Z,NMEA0183,,"$IIHDG,54.2,,,2.5,W*04"
2026-03-16T19:05:31.747Z,NMEA0183,,"$VHW,54.2,T,56.7,M,4.7,N,8.7,K*5E"
2026-03-16T19:05:31.747Z,NMEA0183,,"$MTW,18.2,C*18"
2026-03-16T19:05:31.747Z,NMEA0183,,"$WIMWV,137.4,R,9.7,N,A*2C"
2026-03-16T19:05:31.747Z,NMEA0183,,"$WIMWV,137.4,R,9.7,N,A*2C"
2026-03-16T19:05:32.479Z,NMEA0183,,"$IIXDR,P,0.97095,B,Barometer,C,22.32,C,TempAir*7C"
2026-03-16T19:05:32.746Z,NMEA0183,,"$GPRMC,180532.74,A,4004.4241,N,01500.8137,E,4.6,53.6,160326,2.5,W*7B"
2026-03-16T19:05:32.746Z,NMEA0183,,"$GPGGA,180532.74,4004.4241,N,01500.8137,E,1,10,1.2,10.0,M,0.0,M,,*6B"
2026-03-16T19:05:32.747Z,NMEA0183,,"$GPGSA,A,3,18,6,5,20,3,21,30,27,16,31,,,1.5,1.8,1.1*04"
2026-03-16T19:05:32.747Z,NMEA0183,,"$GPGSV,3,1,10,18,25,32,24,6,77,185,35,5,6,350,22,20,15,258,36*76"
2026-03-16T19:05:32.747Z,NMEA0183,,"$GPGSV,3,2,10,3,80,262,44,21,69,161,33,30,90,222,34,27,90,218,28*4C"
2026-03-16T19:05:32.747Z,NMEA0183,,"$GPGSV,3,3,10,16,32,345,36,31,2,244,40*4F"
2026-03-16T19:05:32.748Z,NMEA0183,,"$GPVTG,53.6,T,56.1,M,4.6,N,8.6,K,A*2D"
2026-03-16T19:05:32.748Z,NMEA0183,,"$IIHDG,53.6,,,2.5,W*07"
2026-03-16T19:05:32.748Z,NMEA0183,,"$VHW,53.6,T,56.1,M,4.6,N,8.6,K*5B"
2026-03-16T19:05:32.748Z,NMEA0183,,"$MTW,18.2,C*18"
2026-03-16T19:05:32.749Z,NMEA0183,,"$WIMWV,132.3,R,8.5,N,A*2D"
2026-03-16T19:05:32.749Z,NMEA0183,,"$WIMWV,132.3,R,8.5,N,A*2D"
2026-03-16T19:05:33.750Z,NMEA0183,,"$GPRMC,180533.74,A,4004.4249,N,01500.8151,E,4.6,54.9,160326,2.5,W*7A"
2026-03-16T19:05:33.750Z,NMEA0183,,"$GPGGA,180533.74,4004.4249,N,01500.8151,E,1,10,1.0,10.0,M,0.0,M,,*60"
2026-03-16T19:05:33.750Z,NMEA0183,,"$GPGSA,A,3,29,10,30,22,3,16,5,8,6,11,,,1.6,1.1,1.3*31"
2026-03-16T19:05:33.751Z,NMEA0183,,"$GPGSV,3,1,10,29,31,174,29,10,46,305,44,30,45,179,29,22,18,317,48*79"
2026-03-16T19:05:33.751Z,NMEA0183,,"$GPGSV,3,2,10,3,72,54,32,16,57,222,28,5,70,150,32,8,76,21,32*4E"
2026-03-16T19:05:33.751Z,NMEA0183,,"$GPGSV,3,3,10,6,64,285,26,11,86,347,46*4B"
2026-03-16T19:05:33.751Z,NMEA0183,,"$GPVTG,54.9,T,57.4,M,4.6,N,8.5,K,A*22"
2026-03-16T19:05:33.752Z,NMEA0183,,"$IIHDG,54.9,,,2.5,W*0F"
2026-03-16T19:05:33.752Z,NMEA0183,,"$VHW,54.9,T,57.4,M,4.6,N,8.5,K*54"
2026-03-16T19:05:33.752Z,NMEA0183,,"$MTW,18.3,C*19"
2026-03-16T19:05:33.752Z,NMEA0183,,"$WIMWV,144.8,R,7.6,N,A*2B"
2026-03-16T19:05:33.752Z,NMEA0183,,"$WIMWV,144.8,R,7.6,N,A*2B"
2026-03-16T19:05:34.826Z,NMEA0183,,"$GPRMC,180534.74,A,4004.4256,N,01500.8164,E,4.4,55.7,160326,2.5,W*78"
2026-03-16T19:05:34.826Z,NMEA0183,,"$GPGGA,180534.74,4004.4256,N,01500.8164,E,1,11,1.5,10.0,M,0.0,M,,*6B"
2026-03-16T19:05:34.826Z,NMEA0183,,"$GPGSA,A,3,26,13,22,10,9,16,27,3,6,2,8,,1.7,1.2,1.6*03"
2026-03-16T19:05:34.826Z,NMEA0183,,"$GPGSV,3,1,11,26,39,335,26,13,22,228,28,22,83,150,26,10,67,265,37*7A"
2026-03-16T19:05:34.827Z,NMEA0183,,"$GPGSV,3,2,11,9,71,166,27,16,14,208,49,27,40,176,45,3,27,168,49*72"
2026-03-16T19:05:34.827Z,NMEA0183,,"$GPGSV,3,3,11,6,54,256,48,2,81,29,27,8,58,308,41*4D"
2026-03-16T19:05:34.827Z,NMEA0183,,"$GPVTG,55.7,T,58.2,M,4.4,N,8.1,K,A*22"
2026-03-16T19:05:34.827Z,NMEA0183,,"$IIHDG,55.7,,,2.5,W*00"
2026-03-16T19:05:34.827Z,NMEA0183,,"$VHW,55.7,T,58.2,M,4.4,N,8.1,K*54"
2026-03-16T19:05:34.827Z,NMEA0183,,"$MTW,18.2,C*18"
2026-03-16T19:05:34.827Z,NMEA0183,,"$WIMWV,116.4,R,8.4,N,A*2D"
2026-03-16T19:05:34.828Z,NMEA0183,,"$WIMWV,116.4,R,8.4,N,A*2D"
2026-03-16T19:05:35.000Z,NMEA0183,,"$IIXDR,P,0.97095,B,Barometer,C,22.28,C,TempAir*77"
2026-03-16T19:05:35.754Z,NMEA0183,,"$GPRMC,180535.74,A,4004.4263,N,01500.8178,E,4.6,56.5,160326,2.5,W*71"
2026-03-16T19:05:35.754Z,NMEA0183,,"$GPGGA,180535.74,4004.4263,N,01500.8178,E,1,12,1.3,10.0,M,0.0,M,,*64"
2026-03-16T19:05:35.755Z,NMEA0183,,"$GPGSA,A,3,2,27,12,7,18,6,14,4,22,23,25,16,2.5,2.0,2.3*3A"
2026-03-16T19:05:35.755Z,NMEA0183,,"$GPGSV,3,1,12,2,43,242,25,27,22,337,37,12,88,101,34,7,51,27,44*4A"
2026-03-16T19:05:35.755Z,NMEA0183,,"$GPGSV,3,2,12,18,20,1,47,6,51,32,23,14,38,31,20,4,21,327,20*7D"
2026-03-16T19:05:35.756Z,NMEA0183,,"$GPGSV,3,3,12,22,55,334,41,23,80,58,35,25,43,266,39,16,0,88,23*47"
2026-03-16T19:05:35.756Z,NMEA0183,,"$GPVTG,56.5,T,59.0,M,4.6,N,8.5,K,A*26"
2026-03-16T19:05:35.756Z,NMEA0183,,"$IIHDG,56.5,,,2.5,W*01"
2026-03-16T19:05:35.756Z,NMEA0183,,"$VHW,56.5,T,59.0,M,4.6,N,8.5,K*50"
2026-03-16T19:05:35.757Z,NMEA0183,,"$MTW,18.2,C*18"
2026-03-16T19:05:35.757Z,NMEA0183,,"$WIMWV,136.4,R,10.2,N,A*10"
2026-03-16T19:05:35.757Z,NMEA0183,,"$WIMWV,136.4,R,10.2,N,A*10"
2026-03-16T19:05:36.754Z,NMEA0183,,"$GPRMC,180536.74,A,4004.4270,N,01500.8191,E,4.8,57.2,160326,2.5,W*7F"
2026-03-16T19:05:36.754Z,NMEA0183,,"$GPGGA,180536.74,4004.4270,N,01500.8191,E,1,12,1.1,10.0,M,0.0,M,,*60"
2026-03-16T19:05:36.754Z,NMEA0183,,"$GPGSA,A,3,8,4,2,27,6,9,28,16,30,12,23,32,2.0,1.8,1.7*06"
2026-03-16T19:05:36.754Z,NMEA0183,,"$GPGSV,3,1,12,8,31,66,26,4,45,39,37,2,20,142,43,27,9,32,41*45"
2026-03-16T19:05:36.755Z,NMEA0183,,"$GPGSV,3,2,12,6,79,139,34,9,12,170,33,28,18,72,47,16,90,356,26*4C"
2026-03-16T19:05:36.755Z,NMEA0183,,"$GPGSV,3,3,12,30,19,57,45,12,4,245,38,23,2,309,48,32,15,180,48*48"
2026-03-16T19:05:36.755Z,NMEA0183,,"$GPVTG,57.2,T,59.7,M,4.8,N,8.8,K,A*24"
2026-03-16T19:05:36.756Z,NMEA0183,,"$IIHDG,57.2,,,2.5,W*07"
2026-03-16T19:05:36.756Z,NMEA0183,,"$VHW,57.2,T,59.7,M,4.8,N,8.8,K*52"
2026-03-16T19:05:36.756Z,NMEA0183,,"$MTW,18.2,C*18"
2026-03-16T19:05:36.756Z,NMEA0183,,"$WIMWV,157.0,R,8.9,N,A*21"
2026-03-16T19:05:36.757Z,NMEA0183,,"$WIMWV,157.0,R,8.9,N,A*21"
2026-03-16T19:05:37.716Z,NMEA0183,,"$IIXDR,P,0.97063,B,Barometer,C,22.27,C,TempAir*71"
2026-03-16T19:05:37.751Z,NMEA0183,,"$GPRMC,180537.74,A,4004.4278,N,01500.8206,E,4.9,59.2,160326,2.5,W*74"
2026-03-16T19:05:37.752Z,NMEA0183,,"$GPGGA,180537.74,4004.4278,N,01500.8206,E,1,08,1.3,10.0,M,0.0,M,,*6D"
2026-03-16T19:05:37.752Z,NMEA0183,,"$GPGSA,A,3,19,8,15,28,6,23,2,25,,,,,1.3,1.1,0.9*05"
2026-03-16T19:05:37.752Z,NMEA0183,,"$GPGSV,2,1,8,19,43,93,47,8,24,40,20,15,61,244,37,28,40,197,31*7A"
2026-03-16T19:05:37.752Z,NMEA0183,,"$GPGSV,2,2,8,6,89,168,42,23,81,26,47,2,79,28,27,25,77,86,28*70"
2026-03-16T19:05:37.753Z,NMEA0183,,"$GPVTG,59.2,T,61.7,M,4.9,N,9.0,K,A*29"
2026-03-16T19:05:37.753Z,NMEA0183,,"$IIHDG,59.2,,,2.5,W*09"
2026-03-16T19:05:37.753Z,NMEA0183,,"$VHW,59.2,T,61.7,M,4.9,N,9.0,K*5F"
2026-03-16T19:05:37.753Z,NMEA0183,,"$MTW,18.1,C*1B"
2026-03-16T19:05:37.754Z,NMEA0183,,"$WIMWV,156.9,R,10.3,N,A*1A"
2026-03-16T19:05:37.754Z,NMEA0183,,"$WIMWV,156.9,R,10.3,N,A*1A"
2026-03-16T19:05:38.760Z,NMEA0183,,"$GPRMC,180538.75,A,4004.4284,N,01500.8221,E,4.8,58.8,160326,2.5,W*76"
2026-03-16T19:05:38.761Z,NMEA0183,,"$GPGGA,180538.75,4004.4284,N,01500.8221,E,1,10,1.7,10.0,M,0.0,M,,*68"
2026-03-16T19:05:38.762Z,NMEA0183,,"$GPGSA,A,3,20,27,23,8,32,10,28,24,13,9,,,2.0,1.4,1.5*38"
2026-03-16T19:05:38.762Z,NMEA0183,,"$GPGSV,3,1,10,20,19,243,31,27,63,231,42,23,36,301,40,8,15,180,37*42"
2026-03-16T19:05:38.762Z,NMEA0183,,"$GPGSV,3,2,10,32,47,244,37,10,1,26,35,28,83,138,37,24,89,255,30*76"
2026-03-16T19:05:38.763Z,NMEA0183,,"$GPGSV,3,3,10,13,44,17,46,9,86,115,26*78"
2026-03-16T19:05:38.763Z,NMEA0183,,"$GPVTG,58.8,T,61.3,M,4.8,N,9.0,K,A*27"
2026-03-16T19:05:38.763Z,NMEA0183,,"$IIHDG,58.8,,,2.5,W*02"
2026-03-16T19:05:38.763Z,NMEA0183,,"$VHW,58.8,T,61.3,M,4.8,N,9.0,K*51"
2026-03-16T19:05:38.764Z,NMEA0183,,"$MTW,18.1,C*1B"
2026-03-16T19:05:38.764Z,NMEA0183,,"$WIMWV,145.2,R,10.8,N,A*18"
2026-03-16T19:05:38.764Z,NMEA0183,,"$WIMWV,145.2,R,10.8,N,A*18"
2026-03-16T19:05:40.112Z,NMEA0183,,"$GPRMC,180539.75,A,4004.4291,N,01500.8236,E,4.7,58.4,160326,2.5,W*76"
2026-03-16T19:05:40.112Z,NMEA0183,,"$GPGGA,180539.75,4004.4291,N,01500.8236,E,1,08,1.5,10.0,M,0.0,M,,*60"
2026-03-16T19:05:40.112Z,NMEA0183,,"$GPGSA,A,3,6,23,5,22,32,29,3,30,,,,,1.1,1.4,1.5*0B"
2026-03-16T19:05:40.112Z,NMEA0183,,"$GPGSV,2,1,8,6,57,76,49,23,60,210,31,5,82,121,39,22,68,260,41*74"
2026-03-16T19:05:40.113Z,NMEA0183,,"$GPGSV,2,2,8,32,14,176,38,29,30,84,49,3,86,47,47,30,79,136,30*70"
2026-03-16T19:05:40.113Z,NMEA0183,,"$GPVTG,58.4,T,60.9,M,4.7,N,8.7,K,A*29"
2026-03-16T19:05:40.113Z,NMEA0183,,"$IIHDG,58.4,,,2.5,W*0E"
2026-03-16T19:05:40.113Z,NMEA0183,,"$VHW,58.4,T,60.9,M,4.7,N,8.7,K*5F"
2026-03-16T19:05:40.113Z,NMEA0183,,"$MTW,18.2,C*18"
2026-03-16T19:05:40.113Z,NMEA0183,,"$WIMWV,157.1,R,11.8,N,A*19"
2026-03-16T19:05:40.114Z,NMEA0183,,"$WIMWV,157.1,R,11.8,N,A*19"
2026-03-16T19:05:40.219Z,NMEA0183,,"$IIXDR,P,0.97076,B,Barometer,C,22.21,C,TempAir*73"
2026-03-16T19:05:40.756Z,NMEA0183,,"$GPRMC,180540.75,A,4004.4298,N,01500.8251,E,4.7,58.5,160326,2.5,W*71"
2026-03-16T19:05:40.757Z,NMEA0183,,"$GPGGA,180540.75,4004.4298,N,01500.8251,E,1,07,1.0,10.0,M,0.0,M,,*6C"
2026-03-16T19:05:40.757Z,NMEA0183,,"$GPGSA,A,3,8,2,13,27,5,1,18,,,,,,2.2,1.9,1.7*3C"
2026-03-16T19:05:40.757Z,NMEA0183,,"$GPGSV,2,1,7,8,51,260,25,2,6,302,20,13,45,23,23,27,17,228,24*4B"
2026-03-16T19:05:40.758Z,NMEA0183,,"$GPGSV,2,2,7,5,66,12,32,1,86,211,31,18,35,116,44*4F"
2026-03-16T19:05:40.758Z,NMEA0183,,"$GPVTG,58.5,T,61.0,M,4.7,N,8.6,K,A*21"
2026-03-16T19:05:40.758Z,NMEA0183,,"$IIHDG,58.5,,,2.5,W*0F"
2026-03-16T19:05:40.758Z,NMEA0183,,"$VHW,58.5,T,61.0,M,4.7,N,8.6,K*57"
2026-03-16T19:05:40.759Z,NMEA0183,,"$MTW,18.2,C*18"
2026-03-16T19:05:40.759Z,NMEA0183,,"$WIMWV,132.8,R,11.1,N,A*1A"
2026-03-16T19:05:40.759Z,NMEA0183,,"$WIMWV,132.8,R,11.1,N,A*1A"
2026-03-16T19:05:41.755Z,NMEA0183,,"$GPRMC,180541.75,A,4004.4305,N,01500.8265,E,4.9,59.0,160326,2.5,W*78"
2026-03-16T19:05:41.759Z,NMEA0183,,"$GPGGA,180541.75,4004.4305,N,01500.8265,E,1,08,1.6,10.0,M,0.0,M,,*66"
2026-03-16T19:05:41.760Z,NMEA0183,,"$GPGSA,A,3,15,11,30,29,17,28,23,31,,,,,1.6,1.3,2.4*32"
2026-03-16T19:05:41.760Z,NMEA0183,,"$GPGSV,2,1,8,15,37,271,24,11,27,130,21,30,28,227,21,29,1,60,22*45"
2026-03-16T19:05:41.760Z,NMEA0183,,"$GPGSV,2,2,8,17,87,68,38,28,53,140,36,23,15,61,50,31,60,151,48*4B"
2026-03-16T19:05:41.760Z,NMEA0183,,"$GPVTG,59.0,T,61.5,M,4.9,N,9.0,K,A*29"
2026-03-16T19:05:41.761Z,NMEA0183,,"$IIHDG,59.0,,,2.5,W*0B"
2026-03-16T19:05:41.761Z,NMEA0183,,"$VHW,59.0,T,61.5,M,4.9,N,9.0,K*5F"
2026-03-16T19:05:41.761Z,NMEA0183,,"$MTW,18.2,C*18"
2026-03-16T19:05:41.762Z,NMEA0183,,"$WIMWV,162.7,R,12.3,N,A*11"
2026-03-16T19:05:41.762Z,NMEA0183,,"$WIMWV,162.7,R,12.3,N,A*11"
2026-03-16T19:05:42.705Z,NMEA0183,,"$IIXDR,P,0.97101,B,Barometer,C,22.20,C,TempAir*73"
2026-03-16T19:05:42.756Z,NMEA0183,,"$GPRMC,180542.75,A,4004.4312,N,01500.8280,E,5.0,59.6,160326,2.5,W*78"
2026-03-16T19:05:42.757Z,NMEA0183,,"$GPGGA,180542.75,4004.4312,N,01500.8280,E,1,07,1.6,10.0,M,0.0,M,,*67"
2026-03-16T19:05:42.757Z,NMEA0183,,"$GPGSA,A,3,21,28,13,23,1,4,20,,,,,,2.3,0.9,1.3*35"
2026-03-16T19:05:42.757Z,NMEA0183,,"$GPGSV,2,1,7,21,65,259,48,28,85,258,47,13,57,7,27,23,43,331,23*40"
2026-03-16T19:05:42.757Z,NMEA0183,,"$GPGSV,2,2,7,1,19,4,37,4,22,254,38,20,29,161,25*73"
2026-03-16T19:05:42.758Z,NMEA0183,,"$GPVTG,59.6,T,62.1,M,5.0,N,9.2,K,A*22"
2026-03-16T19:05:42.758Z,NMEA0183,,"$IIHDG,59.6,,,2.5,W*0D"
2026-03-16T19:05:42.758Z,NMEA0183,,"$VHW,59.6,T,62.1,M,5.0,N,9.2,K*54"
2026-03-16T19:05:42.759Z,NMEA0183,,"$MTW,18.1,C*1B"
2026-03-16T19:05:42.759Z,NMEA0183,,"$WIMWV,159.4,R,8.8,N,A*2A"
2026-03-16T19:05:42.759Z,NMEA0183,,"$WIMWV,159.4,R,8.8,N,A*2A"
2026-03-16T19:05:43.757Z,NMEA0183,,"$GPRMC,180543.75,A,4004.4319,N,01500.8296,E,5.0,59.1,160326,2.5,W*72"
2026-03-16T19:05:43.757Z,NMEA0183,,"$GPGGA,180543.75,4004.4319,N,01500.8296,E,1,07,2.0,10.0,M,0.0,M,,*6F"
2026-03-16T19:05:43.758Z,NMEA0183,,"$GPGSA,A,3,23,14,9,20,6,31,25,,,,,,2.2,1.6,2.1*3A"
2026-03-16T19:05:43.758Z,NMEA0183,,"$GPGSV,2,1,7,23,87,56,27,14,85,352,48,9,42,81,25,20,74,138,44*7F"
2026-03-16T19:05:43.758Z,NMEA0183,,"$GPGSV,2,2,7,6,58,352,39,31,71,225,34,25,65,224,27*48"
2026-03-16T19:05:43.758Z,NMEA0183,,"$GPVTG,59.1,T,61.6,M,5.0,N,9.3,K,A*20"
2026-03-16T19:05:43.759Z,NMEA0183,,"$IIHDG,59.1,,,2.5,W*0A"
2026-03-16T19:05:43.759Z,NMEA0183,,"$VHW,59.1,T,61.6,M,5.0,N,9.3,K*56"
2026-03-16T19:05:43.759Z,NMEA0183,,"$MTW,18.1,C*1B"
2026-03-16T19:05:43.759Z,NMEA0183,,"$WIMWV,136.0,R,11.6,N,A*11"
2026-03-16T19:05:43.760Z,NMEA0183,,"$WIMWV,136.0,R,11.6,N,A*11"
2026-03-16T19:05:44.758Z,NMEA0183,,"$GPRMC,180544.75,A,4004.4326,N,01500.8312,E,5.1,60.5,160326,2.5,W*7B"
2026-03-16T19:05:44.759Z,NMEA0183,,"$GPGGA,180544.75,4004.4326,N,01500.8312,E,1,07,1.1,10.0,M,0.0,M,,*6B"
2026-03-16T19:05:44.759Z,NMEA0183,,"$GPGSA,A,3,9,13,24,12,7,3,4,,,,,,1.4,1.3,1.6*3C"
2026-03-16T19:05:44.759Z,NMEA0183,,"$GPGSV,2,1,7,9,59,221,34,13,0,92,25,24,63,50,43,12,21,39,25*7C"
2026-03-16T19:05:44.760Z,NMEA0183,,"$GPGSV,2,2,7,7,70,282,27,3,69,193,38,4,45,65,49*74"
2026-03-16T19:05:44.760Z,NMEA0183,,"$GPVTG,60.5,T,63.0,M,5.1,N,9.5,K,A*2D"
2026-03-16T19:05:44.760Z,NMEA0183,,"$IIHDG,60.5,,,2.5,W*04"
2026-03-16T19:05:44.761Z,NMEA0183,,"$VHW,60.5,T,63.0,M,5.1,N,9.5,K*5B"
2026-03-16T19:05:44.761Z,NMEA0183,,"$MTW,18.1,C*1B"
2026-03-16T19:05:44.761Z,NMEA0183,,"$WIMWV,164.3,R,8.7,N,A*2C"
2026-03-16T19:05:44.762Z,NMEA0183,,"$WIMWV,164.3,R,8.7,N,A*2C"
2026-03-16T19:05:45.451Z,NMEA0183,,"$IIXDR,P,0.97082,B,Barometer,C,22.16,C,TempAir*7C"
2026-03-16T19:05:45.826Z,NMEA0183,,"$GPRMC,180545.75,A,4004.4333,N,01500.8328,E,5.3,60.2,160326,2.5,W*72"
2026-03-16T19:05:45.826Z,NMEA0183,,"$GPGGA,180545.75,4004.4333,N,01500.8328,E,1,08,1.1,10.0,M,0.0,M,,*68"
2026-03-16T19:05:45.827Z,NMEA0183,,"$GPGSA,A,3,22,31,9,2,25,20,18,7,,,,,2.2,1.0,0.8*09"
2026-03-16T19:05:45.827Z,NMEA0183,,"$GPGSV,2,1,8,22,78,243,46,31,18,161,31,9,70,355,49,2,67,355,31*47"
2026-03-16T19:05:45.828Z,NMEA0183,,"$GPGSV,2,2,8,25,79,342,43,20,68,345,33,18,85,54,49,7,67,68,48*78"
2026-03-16T19:05:45.828Z,NMEA0183,,"$GPVTG,60.2,T,62.7,M,5.3,N,9.9,K,A*22"
2026-03-16T19:05:45.829Z,NMEA0183,,"$IIHDG,60.2,,,2.5,W*03"
2026-03-16T19:05:45.829Z,NMEA0183,,"$VHW,60.2,T,62.7,M,5.3,N,9.9,K*54"
2026-03-16T19:05:45.829Z,NMEA0183,,"$MTW,18.1,C*1B"
2026-03-16T19:05:45.829Z,NMEA0183,,"$WIMWV,166.4,R,10.6,N,A*11"
2026-03-16T19:05:45.830Z,NMEA0183,,"$WIMWV,166.4,R,10.6,N,A*11"
2026-03-16T19:05:46.761Z,NMEA0183,,"$GPRMC,180546.75,A,4004.4341,N,01500.8345,E,5.4,59.0,160326,2.5,W*70"
2026-03-16T19:05:46.761Z,NMEA0183,,"$GPGGA,180546.75,4004.4341,N,01500.8345,E,1,08,1.0,10.0,M,0.0,M,,*64"
2026-03-16T19:05:46.769Z,NMEA0183,,"$GPGSA,A,3,12,30,22,13,20,25,29,9,,,,,2.0,0.7,2.3*03"
2026-03-16T19:05:46.769Z,NMEA0183,,"$GPGSV,2,1,8,12,0,144,30,30,17,141,37,22,71,32,28,13,62,43,33*7A"
2026-03-16T19:05:46.770Z,NMEA0183,,"$GPGSV,2,2,8,20,70,354,48,25,4,239,25,29,6,270,44,9,42,87,44*4E"
2026-03-16T19:05:46.770Z,NMEA0183,,"$GPVTG,59.0,T,61.5,M,5.4,N,10.1,K,A*1C"
2026-03-16T19:05:46.770Z,NMEA0183,,"$IIHDG,59.0,,,2.5,W*0B"
2026-03-16T19:05:46.770Z,NMEA0183,,"$VHW,59.0,T,61.5,M,5.4,N,10.1,K*6A"
2026-03-16T19:05:46.771Z,NMEA0183,,"$MTW,18.1,C*1B"
2026-03-16T19:05:46.771Z,NMEA0183,,"$WIMWV,155.2,R,11.1,N,A*11"
2026-03-16T19:05:46.771Z,NMEA0183,,"$WIMWV,155.2,R,11.1,N,A*11"
2026-03-16T19:05:47.762Z,NMEA0183,,"$GPRMC,180547.75,A,4004.4348,N,01500.8362,E,5.4,59.8,160326,2.5,W*75"
2026-03-16T19:05:47.762Z,NMEA0183,,"$GPGGA,180547.75,4004.4348,N,01500.8362,E,1,08,0.9,10.0,M,0.0,M,,*61"
2026-03-16T19:05:47.763Z,NMEA0183,,"$GPGSA,A,3,2,8,15,1,31,29,7,24,,,,,1.9,1.7,1.5*3F"
2026-03-16T19:05:47.763Z,NMEA0183,,"$GPGSV,2,1,8,2,32,316,36,8,12,251,30,15,33,69,37,1,66,290,30*48"
2026-03-16T19:05:47.763Z,NMEA0183,,"$GPGSV,2,2,8,31,58,23,46,29,24,14,28,7,47,342,41,24,83,186,29*72"
2026-03-16T19:05:47.763Z,NMEA0183,,"$GPVTG,59.8,T,62.3,M,5.4,N,9.9,K,A*21"
2026-03-16T19:05:47.764Z,NMEA0183,,"$IIHDG,59.8,,,2.5,W*03"
2026-03-16T19:05:47.764Z,NMEA0183,,"$VHW,59.8,T,62.3,M,5.4,N,9.9,K*57"
2026-03-16T19:05:47.764Z,NMEA0183,,"$MTW,18.0,C*1A"
2026-03-16T19:05:47.764Z,NMEA0183,,"$WIMWV,167.4,R,12.4,N,A*10"
2026-03-16T19:05:47.765Z,NMEA0183,,"$WIMWV,167.4,R,12.4,N,A*10"
2026-03-16T19:05:48.197Z,NMEA0183,,"$IIXDR,P,0.97088,B,Barometer,C,22.10,C,TempAir*70"
2026-03-16T19:05:48.800Z,NMEA0183,,"$GPRMC,180548.76,A,4004.4356,N,01500.8378,E,5.5,60.7,160326,2.5,W*79"
2026-03-16T19:05:48.801Z,NMEA0183,,"$GPGGA,180548.76,4004.4356,N,01500.8378,E,1,07,0.9,10.0,M,0.0,M,,*66"
2026-03-16T19:05:48.801Z,NMEA0183,,"$GPGSA,A,3,5,27,16,25,19,7,28,,,,,,2.0,1.0,2.3*35"
2026-03-16T19:05:48.801Z,NMEA0183,,"$GPGSV,2,1,7,5,12,110,42,27,1,172,39,16,5,151,22,25,10,206,40*76"
2026-03-16T19:05:48.801Z,NMEA0183,,"$GPGSV,2,2,7,19,57,73,33,7,19,22,45,28,14,128,33*4A"
2026-03-16T19:05:48.801Z,NMEA0183,,"$GPVTG,60.7,T,63.2,M,5.5,N,10.3,K,A*17"
2026-03-16T19:05:48.801Z,NMEA0183,,"$IIHDG,60.7,,,2.5,W*06"
2026-03-16T19:05:48.801Z,NMEA0183,,"$VHW,60.7,T,63.2,M,5.5,N,10.3,K*61"
2026-03-16T19:05:48.801Z,NMEA0183,,"$MTW,18.1,C*1B"
2026-03-16T19:05:48.801Z,NMEA0183,,"$WIMWV,173.0,R,8.3,N,A*2D"
2026-03-16T19:05:48.802Z,NMEA0183,,"$WIMWV,173.0,R,8.3,N,A*2D"
2026-03-16T19:05:49.763Z,NMEA0183,,"$GPRMC,180549.76,A,4004.4363,N,01500.8396,E,5.7,59.5,160326,2.5,W*74"
2026-03-16T19:05:49.764Z,NMEA0183,,"$GPGGA,180549.76,4004.4363,N,01500.8396,E,1,05,1.5,10.0,M,0.0,M,,*6E"
2026-03-16T19:05:49.764Z,NMEA0183,,"$GPGSA,A,3,9,13,12,4,20,,,,,,,,2.2,2.0,1.8*37"
2026-03-16T19:05:49.765Z,NMEA0183,,"$GPGSV,2,1,5,9,55,56,48,13,83,250,23,12,81,248,41,4,68,41,47*4B"
2026-03-16T19:05:49.765Z,NMEA0183,,"$GPGSV,2,2,5,20,55,236,21*7A"
2026-03-16T19:05:49.765Z,NMEA0183,,"$GPVTG,59.5,T,62.0,M,5.7,N,10.5,K,A*18"
2026-03-16T19:05:49.766Z,NMEA0183,,"$IIHDG,59.5,,,2.5,W*0E"
2026-03-16T19:05:49.766Z,NMEA0183,,"$VHW,59.5,T,62.0,M,5.7,N,10.5,K*6E"
2026-03-16T19:05:49.766Z,NMEA0183,,"$MTW,18.0,C*1A"
2026-03-16T19:05:49.766Z,NMEA0183,,"$WIMWV,139.9,R,11.7,N,A*16"
2026-03-16T19:05:49.767Z,NMEA0183,,"$WIMWV,139.9,R,11.7,N,A*16"
2026-03-16T19:05:50.686Z,NMEA0183,,"$IIXDR,P,0.97082,B,Barometer,C,22.08,C,TempAir*73"
2026-03-16T19:05:50.765Z,NMEA0183,,"$GPRMC,180550.76,A,4004.4371,N,01500.8414,E,5.6,58.2,160326,2.5,W*75"
2026-03-16T19:05:50.765Z,NMEA0183,,"$GPGGA,180550.76,4004.4371,N,01500.8414,E,1,11,1.0,10.0,M,0.0,M,,*68"
2026-03-16T19:05:50.765Z,NMEA0183,,"$GPGSA,A,3,26,30,21,31,14,6,23,19,4,18,8,,2.3,0.6,1.4*09"
2026-03-16T19:05:50.766Z,NMEA0183,,"$GPGSV,3,1,11,26,54,147,28,30,17,107,29,21,66,304,45,31,84,300,38*7D"
2026-03-16T19:05:50.766Z,NMEA0183,,"$GPGSV,3,2,11,14,40,35,39,6,33,7,45,23,89,80,31,19,9,208,44*74"
2026-03-16T19:05:50.766Z,NMEA0183,,"$GPGSV,3,3,11,4,9,158,22,18,43,102,22,8,87,244,46*72"
2026-03-16T19:05:50.767Z,NMEA0183,,"$GPVTG,58.2,T,60.7,M,5.6,N,10.4,K,A*1B"
2026-03-16T19:05:50.767Z,NMEA0183,,"$IIHDG,58.2,,,2.5,W*08"
2026-03-16T19:05:50.767Z,NMEA0183,,"$VHW,58.2,T,60.7,M,5.6,N,10.4,K*6D"
2026-03-16T19:05:50.767Z,NMEA0183,,"$MTW,18.0,C*1A"
2026-03-16T19:05:50.767Z,NMEA0183,,"$WIMWV,167.5,R,9.0,N,A*2F"
2026-03-16T19:05:50.768Z,NMEA0183,,"$WIMWV,167.5,R,9.0,N,A*2F"
2026-03-16T19:05:51.765Z,NMEA0183,,"$GPRMC,180551.76,A,4004.4380,N,01500.8431,E,5.6,56.8,160326,2.5,W*79"
2026-03-16T19:05:51.765Z,NMEA0183,,"$GPGGA,180551.76,4004.4380,N,01500.8431,E,1,11,1.2,10.0,M,0.0,M,,*62"
2026-03-16T19:05:51.772Z,NMEA0183,,"$GPGSA,A,3,27,24,26,8,6,1,16,32,7,2,9,,2.1,1.1,0.9*3A"
2026-03-16T19:05:51.773Z,NMEA0183,,"$GPGSV,3,1,11,27,4,85,40,24,31,68,30,26,40,349,20,8,74,196,23*72"
2026-03-16T19:05:51.773Z,NMEA0183,,"$GPGSV,3,2,11,6,70,202,20,1,4,37,45,16,40,54,45,32,39,72,39*7C"
2026-03-16T19:05:51.773Z,NMEA0183,,"$GPGSV,3,3,11,7,36,256,21,2,47,288,46,9,36,265,48*79"
2026-03-16T19:05:51.773Z,NMEA0183,,"$GPVTG,56.8,T,59.3,M,5.6,N,10.4,K,A*11"
2026-03-16T19:05:51.773Z,NMEA0183,,"$IIHDG,56.8,,,2.5,W*0C"
2026-03-16T19:05:51.773Z,NMEA0183,,"$VHW,56.8,T,59.3,M,5.6,N,10.4,K*67"
2026-03-16T19:05:51.773Z,NMEA0183,,"$MTW,18.0,C*1A"
2026-03-16T19:05:51.774Z,NMEA0183,,"$WIMWV,168.4,R,10.1,N,A*18"
2026-03-16T19:05:51.774Z,NMEA0183,,"$WIMWV,168.4,R,10.1,N,A*18"
2026-03-16T19:05:52.767Z,NMEA0183,,"$GPRMC,180552.76,A,4004.4388,N,01500.8448,E,5.7,58.0,160326,2.5,W*7B"
2026-03-16T19:05:52.767Z,NMEA0183,,"$GPGGA,180552.76,4004.4388,N,01500.8448,E,1,05,1.7,10.0,M,0.0,M,,*67"
2026-03-16T19:05:52.768Z,NMEA0183,,"$GPGSA,A,3,31,14,13,18,29,,,,,,,,1.5,1.5,2.0*37"
2026-03-16T19:05:52.768Z,NMEA0183,,"$GPGSV,2,1,5,31,82,42,31,14,35,27,48,13,4,158,25,18,19,29,44*4E"
2026-03-16T19:05:52.768Z,NMEA0183,,"$GPGSV,2,2,5,29,53,264,24*77"
2026-03-16T19:05:52.768Z,NMEA0183,,"$GPVTG,58.0,T,60.5,M,5.7,N,10.5,K,A*1B"
2026-03-16T19:05:52.769Z,NMEA0183,,"$IIHDG,58.0,,,2.5,W*0A"
2026-03-16T19:05:52.769Z,NMEA0183,,"$VHW,58.0,T,60.5,M,5.7,N,10.5,K*6D"
2026-03-16T19:05:52.769Z,NMEA0183,,"$MTW,18.0,C*1A"
2026-03-16T19:05:52.769Z,NMEA0183,,"$WIMWV,150.2,R,10.2,N,A*16"
2026-03-16T19:05:52.770Z,NMEA0183,,"$WIMWV,150.2,R,10.2,N,A*16"
2026-03-16T19:05:53.303Z,NMEA0183,,"$IIXDR,P,0.97076,B,Barometer,C,22.07,C,TempAir*77"
2026-03-16T19:05:53.769Z,NMEA0183,,"$GPRMC,180553.76,A,4004.4396,N,01500.8466,E,5.7,57.3,160326,2.5,W*75"
2026-03-16T19:05:53.769Z,NMEA0183,,"$GPGGA,180553.76,4004.4396,N,01500.8466,E,1,09,1.3,10.0,M,0.0,M,,*6D"
2026-03-16T19:05:53.769Z,NMEA0183,,"$GPGSA,A,3,28,29,14,32,15,18,30,8,25,,,,1.4,1.0,2.3*03"
2026-03-16T19:05:53.770Z,NMEA0183,,"$GPGSV,3,1,9,28,36,196,21,29,89,248,20,14,86,220,20,32,30,286,31*43"
2026-03-16T19:05:53.770Z,NMEA0183,,"$GPGSV,3,2,9,15,90,42,33,18,57,45,42,30,62,273,34,8,87,263,34*77"
2026-03-16T19:05:53.770Z,NMEA0183,,"$GPGSV,3,3,9,25,53,29,46*48"
2026-03-16T19:05:53.770Z,NMEA0183,,"$GPVTG,57.3,T,59.8,M,5.7,N,10.6,K,A*13"
2026-03-16T19:05:53.771Z,NMEA0183,,"$IIHDG,57.3,,,2.5,W*06"
2026-03-16T19:05:53.771Z,NMEA0183,,"$VHW,57.3,T,59.8,M,5.7,N,10.6,K*65"
2026-03-16T19:05:53.771Z,NMEA0183,,"$MTW,18.0,C*1A"
2026-03-16T19:05:53.772Z,NMEA0183,,"$WIMWV,147.0,R,9.1,N,A*29"
2026-03-16T19:05:53.772Z,NMEA0183,,"$WIMWV,147.0,R,9.1,N,A*29"
2026-03-16T19:05:54.774Z,NMEA0183,,"$GPRMC,180554.76,A,4004.4405,N,01500.8483,E,5.8,56.0,160326,2.5,W*79"
2026-03-16T19:05:54.775Z,NMEA0183,,"$GPGGA,180554.76,4004.4405,N,01500.8483,E,1,08,1.1,10.0,M,0.0,M,,*6F"
2026-03-16T19:05:54.775Z,NMEA0183,,"$GPGSA,A,3,11,31,26,2,12,15,3,24,,,,,1.8,1.1,0.9*34"
2026-03-16T19:05:54.775Z,NMEA0183,,"$GPGSV,2,1,8,11,4,295,39,31,83,189,40,26,22,343,49,2,64,246,36*47"
2026-03-16T19:05:54.775Z,NMEA0183,,"$GPGSV,2,2,8,12,57,62,32,15,22,280,28,3,44,235,48,24,80,169,40*4E"
2026-03-16T19:05:54.776Z,NMEA0183,,"$GPVTG,56.0,T,58.5,M,5.8,N,10.8,K,A*1C"
2026-03-16T19:05:54.776Z,NMEA0183,,"$IIHDG,56.0,,,2.5,W*04"
2026-03-16T19:05:54.776Z,NMEA0183,,"$VHW,56.0,T,58.5,M,5.8,N,10.8,K*6A"
2026-03-16T19:05:54.777Z,NMEA0183,,"$MTW,18.0,C*1A"
2026-03-16T19:05:54.777Z,NMEA0183,,"$WIMWV,171.2,R,7.9,N,A*28"
2026-03-16T19:05:54.777Z,NMEA0183,,"$WIMWV,171.2,R,7.9,N,A*28"
2026-03-16T19:05:55.674Z,NMEA0183,,"$IIXDR,P,0.97076,B,Barometer,C,22.03,C,TempAir*73"
2026-03-16T19:05:55.771Z,NMEA0183,,"$GPRMC,180555.76,A,4004.4414,N,01500.8501,E,5.8,57.2,160326,2.5,W*70"
2026-03-16T19:05:55.771Z,NMEA0183,,"$GPGGA,180555.76,4004.4414,N,01500.8501,E,1,05,0.9,10.0,M,0.0,M,,*61"
2026-03-16T19:05:55.772Z,NMEA0183,,"$GPGSA,A,3,25,8,20,30,21,,,,,,,,1.6,1.5,1.9*04"
2026-03-16T19:05:55.772Z,NMEA0183,,"$GPGSV,2,1,5,25,56,138,28,8,74,186,45,20,18,216,39,30,55,71,42*49"
2026-03-16T19:05:55.772Z,NMEA0183,,"$GPGSV,2,2,5,21,49,336,48*78"
2026-03-16T19:05:55.772Z,NMEA0183,,"$GPVTG,57.2,T,59.7,M,5.8,N,10.7,K,A*13"
2026-03-16T19:05:55.773Z,NMEA0183,,"$IIHDG,57.2,,,2.5,W*07"
2026-03-16T19:05:55.773Z,NMEA0183,,"$VHW,57.2,T,59.7,M,5.8,N,10.7,K*65"
2026-03-16T19:05:55.773Z,NMEA0183,,"$MTW,17.9,C*1C"
2026-03-16T19:05:55.773Z,NMEA0183,,"$WIMWV,130.2,R,11.2,N,A*11"
2026-03-16T19:05:55.774Z,NMEA0183,,"$WIMWV,130.2,R,11.2,N,A*11"
2026-03-16T19:05:57.397Z,NMEA0183,,"$GPRMC,180556.77,A,4004.4423,N,01500.8518,E,5.7,57.9,160326,2.5,W*7A"
2026-03-16T19:05:57.397Z,NMEA0183,,"$GPGGA,180556.77,4004.4423,N,01500.8518,E,1,05,1.0,10.0,M,0.0,M,,*67"
2026-03-16T19:05:57.397Z,NMEA0183,,"$GPGSA,A,3,29,16,7,1,10,,,,,,,,2.4,1.2,1.7*3A"
2026-03-16T19:05:57.397Z,NMEA0183,,"$GPGSV,2,1,5,29,0,29,40,16,51,221,34,7,47,257,43,1,42,150,44*4E"
2026-03-16T19:05:57.397Z,NMEA0183,,"$GPGSV,2,2,5,10,8,202,50*40"
2026-03-16T19:05:57.398Z,NMEA0183,,"$GPVTG,57.9,T,60.4,M,5.7,N,10.5,K,A*1C"
2026-03-16T19:05:57.398Z,NMEA0183,,"$IIHDG,57.9,,,2.5,W*0C"
2026-03-16T19:05:57.398Z,NMEA0183,,"$VHW,57.9,T,60.4,M,5.7,N,10.5,K*6A"
2026-03-16T19:05:57.398Z,NMEA0183,,"$MTW,17.9,C*1C"
2026-03-16T19:05:57.398Z,NMEA0183,,"$WIMWV,157.9,R,12.1,N,A*1B"
2026-03-16T19:05:57.398Z,NMEA0183,,"$WIMWV,157.9,R,12.1,N,A*1B"
2026-03-16T19:05:57.774Z,NMEA0183,,"$GPRMC,180557.77,A,4004.4431,N,01500.8536,E,5.6,59.9,160326,2.5,W*7B"
2026-03-16T19:05:57.774Z,NMEA0183,,"$GPGGA,180557.77,4004.4431,N,01500.8536,E,1,08,0.8,10.0,M,0.0,M,,*6D"
2026-03-16T19:05:57.775Z,NMEA0183,,"$GPGSA,A,3,4,17,25,13,22,19,12,6,,,,,2.1,1.2,2.4*3E"
2026-03-16T19:05:57.775Z,NMEA0183,,"$GPGSV,2,1,8,4,56,287,21,17,23,61,36,25,37,148,24,13,41,86,36*7A"
2026-03-16T19:05:57.775Z,NMEA0183,,"$GPGSV,2,2,8,22,37,155,37,19,73,265,42,12,37,344,44,6,54,287,46*77"
2026-03-16T19:05:57.775Z,NMEA0183,,"$GPVTG,59.9,T,62.4,M,5.6,N,10.3,K,A*17"
2026-03-16T19:05:57.775Z,NMEA0183,,"$IIHDG,59.9,,,2.5,W*02"
2026-03-16T19:05:57.776Z,NMEA0183,,"$VHW,59.9,T,62.4,M,5.6,N,10.3,K*61"
2026-03-16T19:05:57.776Z,NMEA0183,,"$MTW,17.9,C*1C"
2026-03-16T19:05:57.776Z,NMEA0183,,"$WIMWV,142.2,R,8.4,N,A*2A"
2026-03-16T19:05:57.777Z,NMEA0183,,"$WIMWV,142.2,R,8.4,N,A*2A"
2026-03-16T19:05:58.417Z,NMEA0183,,"$IIXDR,P,0.97088,B,Barometer,C,22.02,C,TempAir*73"
2026-03-16T19:05:58.775Z,NMEA0183,,"$GPRMC,180558.77,A,4004.4439,N,01500.8553,E,5.4,60.0,160326,2.5,W*7E"
2026-03-16T19:05:58.775Z,NMEA0183,,"$GPGGA,180558.77,4004.4439,N,01500.8553,E,1,06,0.8,10.0,M,0.0,M,,*67"
2026-03-16T19:05:58.776Z,NMEA0183,,"$GPGSA,A,3,12,9,6,24,21,15,,,,,,,2.2,1.4,1.2*39"
2026-03-16T19:05:58.776Z,NMEA0183,,"$GPGSV,2,1,6,12,84,76,43,9,37,83,49,6,61,214,40,24,34,159,36*45"
2026-03-16T19:05:58.776Z,NMEA0183,,"$GPGSV,2,2,6,21,0,225,33,15,80,168,49*77"
2026-03-16T19:05:58.776Z,NMEA0183,,"$GPVTG,60.0,T,62.5,M,5.4,N,10.1,K,A*15"
2026-03-16T19:05:58.776Z,NMEA0183,,"$IIHDG,60.0,,,2.5,W*01"
2026-03-16T19:05:58.777Z,NMEA0183,,"$VHW,60.0,T,62.5,M,5.4,N,10.1,K*63"
2026-03-16T19:05:58.777Z,NMEA0183,,"$MTW,17.9,C*1C"
2026-03-16T19:05:58.777Z,NMEA0183,,"$WIMWV,146.0,R,11.8,N,A*18"
2026-03-16T19:05:58.778Z,NMEA0183,,"$WIMWV,146.0,R,11.8,N,A*18"
2026-03-16T19:05:59.776Z,NMEA0183,,"$GPRMC,180559.77,A,4004.4447,N,01500.8570,E,5.6,61.2,160326,2.5,W*76"
2026-03-16T19:05:59.777Z,NMEA0183,,"$GPGGA,180559.77,4004.4447,N,01500.8570,E,1,06,1.9,10.0,M,0.0,M,,*6E"
2026-03-16T19:05:59.777Z,NMEA0183,,"$GPGSA,A,3,11,19,9,21,27,17,,,,,,,2.5,1.2,1.7*01"
2026-03-16T19:05:59.777Z,NMEA0183,,"$GPGSV,2,1,6,11,12,105,35,19,32,299,39,9,73,167,26,21,45,58,39*40"
2026-03-16T19:05:59.777Z,NMEA0183,,"$GPGSV,2,2,6,27,52,273,46,17,56,315,46*49"
2026-03-16T19:05:59.778Z,NMEA0183,,"$GPVTG,61.2,T,63.7,M,5.6,N,10.4,K,A*12"
2026-03-16T19:05:59.778Z,NMEA0183,,"$IIHDG,61.2,,,2.5,W*02"
2026-03-16T19:05:59.778Z,NMEA0183,,"$VHW,61.2,T,63.7,M,5.6,N,10.4,K*64"
2026-03-16T19:05:59.778Z,NMEA0183,,"$MTW,17.9,C*1C"
2026-03-16T19:05:59.779Z,NMEA0183,,"$WIMWV,141.0,R,9.9,N,A*27"
2026-03-16T19:05:59.779Z,NMEA0183,,"$WIMWV,141.0,R,9.9,N,A*27"
2026-03-16T19:06:00.940Z,NMEA0183,,"$IIXDR,P,0.97095,B,Barometer,C,22.02,C,TempAir*7F"
2026-03-16T19:06:00.940Z,NMEA0183,,"$GPRMC,180600.77,A,4004.4454,N,01500.8588,E,5.8,60.2,160326,2.5,W*73"
2026-03-16T19:06:00.941Z,NMEA0183,,"$GPGGA,180600.77,4004.4454,N,01500.8588,E,1,10,2.0,10.0,M,0.0,M,,*69"
2026-03-16T19:06:00.941Z,NMEA0183,,"$GPGSA,A,3,2,8,27,18,5,30,20,7,6,23,,,1.7,1.8,2.2*0F"
2026-03-16T19:06:00.941Z,NMEA0183,,"$GPGSV,3,1,10,2,0,248,23,8,76,307,48,27,47,349,30,18,54,285,49*47"
2026-03-16T19:06:00.941Z,NMEA0183,,"$GPGSV,3,2,10,5,82,314,21,30,11,141,31,20,17,177,33,7,7,287,40*4A"
2026-03-16T19:06:00.941Z,NMEA0183,,"$GPGSV,3,3,10,6,14,122,40,23,5,196,44*74"
2026-03-16T19:06:00.941Z,NMEA0183,,"$GPVTG,60.2,T,62.7,M,5.8,N,10.7,K,A*1F"
2026-03-16T19:06:00.941Z,NMEA0183,,"$IIHDG,60.2,,,2.5,W*03"
2026-03-16T19:06:00.941Z,NMEA0183,,"$VHW,60.2,T,62.7,M,5.8,N,10.7,K*69"
2026-03-16T19:06:00.941Z,NMEA0183,,"$MTW,17.9,C*1C"
2026-03-16T19:06:00.942Z,NMEA0183,,"$WIMWV,138.2,R,7.8,N,A*24"
2026-03-16T19:06:00.942Z,NMEA0183,,"$WIMWV,138.2,R,7.8,N,A*24"
2026-03-16T19:06:01.779Z,NMEA0183,,"$GPRMC,180601.77,A,4004.4462,N,01500.8606,E,6.0,61.2,160326,2.5,W*78"
2026-03-16T19:06:01.779Z,NMEA0183,,"$GPGGA,180601.77,4004.4462,N,01500.8606,E,1,09,0.9,10.0,M,0.0,M,,*6B"
2026-03-16T19:06:01.780Z,NMEA0183,,"$GPGSA,A,3,17,12,18,23,26,28,1,5,2,,,,2.1,0.9,1.1*0D"
2026-03-16T19:06:01.780Z,NMEA0183,,"$GPGSV,3,1,9,17,12,323,32,12,26,18,35,18,44,115,26,23,12,312,42*70"
2026-03-16T19:06:01.780Z,NMEA0183,,"$GPGSV,3,2,9,26,23,93,31,28,48,122,37,1,18,282,36,5,1,248,33*40"
2026-03-16T19:06:01.780Z,NMEA0183,,"$GPGSV,3,3,9,2,11,289,20*43"
2026-03-16T19:06:01.781Z,NMEA0183,,"$GPVTG,61.2,T,63.7,M,6.0,N,11.1,K,A*13"
2026-03-16T19:06:01.781Z,NMEA0183,,"$IIHDG,61.2,,,2.5,W*02"
2026-03-16T19:06:01.781Z,NMEA0183,,"$VHW,61.2,T,63.7,M,6.0,N,11.1,K*65"
2026-03-16T19:06:01.781Z,NMEA0183,,"$MTW,17.8,C*1D"
2026-03-16T19:06:01.782Z,NMEA0183,,"$WIMWV,145.5,R,8.0,N,A*2E"
2026-03-16T19:06:01.782Z,NMEA0183,,"$WIMWV,145.5,R,8.0,N,A*2E"
2026-03-16T19:06:02.780Z,NMEA0183,,"$GPRMC,180602.77,A,4004.4470,N,01500.8625,E,5.8,62.4,160326,2.5,W*77"
2026-03-16T19:06:02.781Z,NMEA0183,,"$GPGGA,180602.77,4004.4470,N,01500.8625,E,1,09,1.2,10.0,M,0.0,M,,*60"
2026-03-16T19:06:02.781Z,NMEA0183,,"$GPGSA,A,3,9,29,26,25,32,22,31,20,15,,,,2.3,1.5,1.5*07"
2026-03-16T19:06:02.781Z,NMEA0183,,"$GPGSV,3,1,9,9,40,160,22,29,87,328,30,26,55,299,35,25,75,137,47*75"
2026-03-16T19:06:02.781Z,NMEA0183,,"$GPGSV,3,2,9,32,31,151,24,22,86,180,40,31,56,103,28,20,26,291,33*47"
2026-03-16T19:06:02.782Z,NMEA0183,,"$GPGSV,3,3,9,15,15,103,49*7F"
2026-03-16T19:06:02.782Z,NMEA0183,,"$GPVTG,62.4,T,64.9,M,5.8,N,10.8,K,A*1C"
2026-03-16T19:06:02.782Z,NMEA0183,,"$IIHDG,62.4,,,2.5,W*07"
2026-03-16T19:06:02.782Z,NMEA0183,,"$VHW,62.4,T,64.9,M,5.8,N,10.8,K*6A"
2026-03-16T19:06:02.783Z,NMEA0183,,"$MTW,17.8,C*1D"
2026-03-16T19:06:02.783Z,NMEA0183,,"$WIMWV,136.4,R,8.2,N,A*29"
2026-03-16T19:06:02.783Z,NMEA0183,,"$WIMWV,136.4,R,8.2,N,A*29"
2026-03-16T19:06:03.654Z,NMEA0183,,"$IIXDR,P,0.97095,B,Barometer,C,21.98,C,TempAir*7F"
2026-03-16T19:06:03.781Z,NMEA0183,,"$GPRMC,180603.77,A,4004.4478,N,01500.8644,E,5.7,63.9,160326,2.5,W*7A"
2026-03-16T19:06:03.781Z,NMEA0183,,"$GPGGA,180603.77,4004.4478,N,01500.8644,E,1,10,1.2,10.0,M,0.0,M,,*66"
2026-03-16T19:06:03.782Z,NMEA0183,,"$GPGSA,A,3,4,1,10,23,24,9,22,31,26,14,,,1.2,1.6,1.2*0C"
2026-03-16T19:06:03.782Z,NMEA0183,,"$GPGSV,3,1,10,4,2,208,35,1,55,13,20,10,50,289,26,23,2,22,35*77"
2026-03-16T19:06:03.782Z,NMEA0183,,"$GPGSV,3,2,10,24,80,201,41,9,64,182,34,22,10,202,27,31,87,29,24*72"
2026-03-16T19:06:03.782Z,NMEA0183,,"$GPGSV,3,3,10,26,77,208,40,14,77,124,26*74"
2026-03-16T19:06:03.783Z,NMEA0183,,"$GPVTG,63.9,T,66.4,M,5.7,N,10.6,K,A*1E"
2026-03-16T19:06:03.783Z,NMEA0183,,"$IIHDG,63.9,,,2.5,W*0B"
2026-03-16T19:06:03.783Z,NMEA0183,,"$VHW,63.9,T,66.4,M,5.7,N,10.6,K*68"
2026-03-16T19:06:03.783Z,NMEA0183,,"$MTW,17.8,C*1D"
2026-03-16T19:06:03.784Z,NMEA0183,,"$WIMWV,131.7,R,7.8,N,A*28"
2026-03-16T19:06:03.784Z,NMEA0183,,"$WIMWV,131.7,R,7.8,N,A*28"
2026-03-16T19:06:04.783Z,NMEA0183,,"$GPRMC,180604.78,A,4004.4485,N,01500.8663,E,5.6,63.8,160326,2.5,W*75"
2026-03-16T19:06:04.783Z,NMEA0183,,"$GPGGA,180604.78,4004.4485,N,01500.8663,E,1,11,1.5,10.0,M,0.0,M,,*6F"
2026-03-16T19:06:04.783Z,NMEA0183,,"$GPGSA,A,3,31,10,24,16,9,25,18,6,13,32,26,,2.5,1.9,2.2*39"
2026-03-16T19:06:04.784Z,NMEA0183,,"$GPGSV,3,1,11,31,66,140,34,10,32,235,49,24,38,164,20,16,55,223,34*7D"
2026-03-16T19:06:04.784Z,NMEA0183,,"$GPGSV,3,2,11,9,19,9,32,25,14,240,44,18,53,16,20,6,40,238,39*4E"
2026-03-16T19:06:04.784Z,NMEA0183,,"$GPGSV,3,3,11,13,30,144,30,32,65,359,41,26,34,14,41*71"
2026-03-16T19:06:04.785Z,NMEA0183,,"$GPVTG,63.8,T,66.3,M,5.6,N,10.3,K,A*1C"
2026-03-16T19:06:04.785Z,NMEA0183,,"$IIHDG,63.8,,,2.5,W*0A"
2026-03-16T19:06:04.785Z,NMEA0183,,"$VHW,63.8,T,66.3,M,5.6,N,10.3,K*6A"
2026-03-16T19:06:04.785Z,NMEA0183,,"$MTW,17.8,C*1D"
2026-03-16T19:06:04.786Z,NMEA0183,,"$WIMWV,160.4,R,9.4,N,A*2D"
2026-03-16T19:06:04.786Z,NMEA0183,,"$WIMWV,160.4,R,9.4,N,A*2D"
2026-03-16T19:06:05.784Z,NMEA0183,,"$GPRMC,180605.78,A,4004.4491,N,01500.8681,E,5.6,63.4,160326,2.5,W*71"
2026-03-16T19:06:05.784Z,NMEA0183,,"$GPGGA,180605.78,4004.4491,N,01500.8681,E,1,12,1.6,10.0,M,0.0,M,,*67"
2026-03-16T19:06:05.784Z,NMEA0183,,"$GPGSA,A,3,8,22,25,1,19,7,4,29,26,18,20,13,2.0,0.8,1.9*33"
2026-03-16T19:06:05.784Z,NMEA0183,,"$GPGSV,3,1,12,8,71,326,20,22,1,323,42,25,8,106,29,1,41,7,49*7B"
2026-03-16T19:06:05.785Z,NMEA0183,,"$GPGSV,3,2,12,19,27,264,49,7,7,57,40,4,3,276,29,29,9,104,44*75"
2026-03-16T19:06:05.785Z,NMEA0183,,"$GPGSV,3,3,12,26,70,75,43,18,68,159,22,20,88,344,21,13,7,325,38*7E"
2026-03-16T19:06:05.785Z,NMEA0183,,"$GPVTG,63.4,T,65.9,M,5.6,N,10.3,K,A*19"
2026-03-16T19:06:05.785Z,NMEA0183,,"$IIHDG,63.4,,,2.5,W*06"
2026-03-16T19:06:05.786Z,NMEA0183,,"$VHW,63.4,T,65.9,M,5.6,N,10.3,K*6F"
2026-03-16T19:06:05.786Z,NMEA0183,,"$MTW,17.7,C*12"
2026-03-16T19:06:05.786Z,NMEA0183,,"$WIMWV,157.1,R,11.9,N,A*18"
2026-03-16T19:06:05.787Z,NMEA0183,,"$WIMWV,157.1,R,11.9,N,A*18"
2026-03-16T19:06:06.415Z,NMEA0183,,"$IIXDR,P,0.97101,B,Barometer,C,21.94,C,TempAir*7F"
2026-03-16T19:06:06.785Z,NMEA0183,,"$GPRMC,180606.78,A,4004.4498,N,01500.8699,E,5.5,65.1,160326,2.5,W*72"
2026-03-16T19:06:06.785Z,NMEA0183,,"$GPGGA,180606.78,4004.4498,N,01500.8699,E,1,07,0.9,10.0,M,0.0,M,,*6E"
2026-03-16T19:06:06.785Z,NMEA0183,,"$GPGSA,A,3,23,1,24,22,27,17,11,,,,,,1.2,0.6,1.8*0B"
2026-03-16T19:06:06.785Z,NMEA0183,,"$GPGSV,2,1,7,23,16,135,37,1,79,174,24,24,86,223,28,22,89,285,26*78"
2026-03-16T19:06:06.786Z,NMEA0183,,"$GPGSV,2,2,7,27,56,97,32,17,86,248,20,11,53,60,23*72"
2026-03-16T19:06:06.786Z,NMEA0183,,"$GPVTG,65.1,T,67.6,M,5.5,N,10.1,K,A*16"
2026-03-16T19:06:06.786Z,NMEA0183,,"$IIHDG,65.1,,,2.5,W*05"
2026-03-16T19:06:06.786Z,NMEA0183,,"$VHW,65.1,T,67.6,M,5.5,N,10.1,K*60"
2026-03-16T19:06:06.787Z,NMEA0183,,"$MTW,17.7,C*12"
2026-03-16T19:06:06.787Z,NMEA0183,,"$WIMWV,141.8,R,11.4,N,A*1B"
2026-03-16T19:06:06.787Z,NMEA0183,,"$WIMWV,141.8,R,11.4,N,A*1B"
2026-03-16T19:06:07.786Z,NMEA0183,,"$GPRMC,180607.78,A,4004.4505,N,01500.8717,E,5.3,64.2,160326,2.5,W*75"
2026-03-16T19:06:07.786Z,NMEA0183,,"$GPGGA,180607.78,4004.4505,N,01500.8717,E,1,06,1.4,10.0,M,0.0,M,,*60"
2026-03-16T19:06:07.786Z,NMEA0183,,"$GPGSA,A,3,31,11,26,13,5,7,,,,,,,1.9,0.7,1.1*3B"
2026-03-16T19:06:07.787Z,NMEA0183,,"$GPGSV,2,1,6,31,49,56,28,11,29,82,22,26,65,330,44,13,20,302,42*4B"
2026-03-16T19:06:07.787Z,NMEA0183,,"$GPGSV,2,2,6,5,0,182,37,7,38,259,26*73"
2026-03-16T19:06:07.787Z,NMEA0183,,"$GPVTG,64.2,T,66.7,M,5.3,N,9.9,K,A*22"
2026-03-16T19:06:07.787Z,NMEA0183,,"$IIHDG,64.2,,,2.5,W*07"
2026-03-16T19:06:07.788Z,NMEA0183,,"$VHW,64.2,T,66.7,M,5.3,N,9.9,K*54"
2026-03-16T19:06:07.788Z,NMEA0183,,"$MTW,17.8,C*1D"
2026-03-16T19:06:07.788Z,NMEA0183,,"$WIMWV,161.8,R,11.9,N,A*14"
2026-03-16T19:06:07.789Z,NMEA0183,,"$WIMWV,161.8,R,11.9,N,A*14"
2026-03-16T19:06:08.643Z,NMEA0183,,"$IIXDR,P,0.97088,B,Barometer,C,21.92,C,TempAir*79"
2026-03-16T19:06:08.787Z,NMEA0183,,"$GPRMC,180608.78,A,4004.4511,N,01500.8734,E,5.2,65.5,160326,2.5,W*79"
2026-03-16T19:06:08.787Z,NMEA0183,,"$GPGGA,180608.78,4004.4511,N,01500.8734,E,1,07,1.3,10.0,M,0.0,M,,*6D"
2026-03-16T19:06:08.787Z,NMEA0183,,"$GPGSA,A,3,1,10,27,30,20,6,12,,,,,,2.2,1.7,1.0*34"
2026-03-16T19:06:08.788Z,NMEA0183,,"$GPGSV,2,1,7,1,67,45,45,10,37,13,43,27,80,198,43,30,83,257,39*75"
2026-03-16T19:06:08.788Z,NMEA0183,,"$GPGSV,2,2,7,20,54,277,34,6,28,214,30,12,76,178,39*46"
2026-03-16T19:06:08.788Z,NMEA0183,,"$GPVTG,65.5,T,68.0,M,5.2,N,9.6,K,A*23"
2026-03-16T19:06:08.788Z,NMEA0183,,"$IIHDG,65.5,,,2.5,W*01"
2026-03-16T19:06:08.789Z,NMEA0183,,"$VHW,65.5,T,68.0,M,5.2,N,9.6,K*55"
2026-03-16T19:06:08.789Z,NMEA0183,,"$MTW,17.7,C*12"
2026-03-16T19:06:08.790Z,NMEA0183,,"$WIMWV,139.3,R,9.5,N,A*27"
2026-03-16T19:06:08.790Z,NMEA0183,,"$WIMWV,139.3,R,9.5,N,A*27"
2026-03-16T19:06:09.788Z,NMEA0183,,"$GPRMC,180609.78,A,4004.4517,N,01500.8752,E,5.0,67.3,160326,2.5,W*78"
2026-03-16T19:06:09.788Z,NMEA0183,,"$GPGGA,180609.78,4004.4517,N,01500.8752,E,1,09,1.3,10.0,M,0.0,M,,*64"
2026-03-16T19:06:09.789Z,NMEA0183,,"$GPGSA,A,3,9,19,4,25,5,27,18,30,20,,,,2.3,1.0,1.0*09"
2026-03-16T19:06:09.789Z,NMEA0183,,"$GPGSV,3,1,9,9,34,259,37,19,89,225,27,4,22,323,34,25,72,291,31*44"
2026-03-16T19:06:09.789Z,NMEA0183,,"$GPGSV,3,2,9,5,84,144,36,27,70,66,38,18,24,111,20,30,25,222,39*45"
2026-03-16T19:06:09.789Z,NMEA0183,,"$GPGSV,3,3,9,20,83,350,25*78"
2026-03-16T19:06:09.790Z,NMEA0183,,"$GPVTG,67.3,T,69.8,M,5.0,N,9.3,K,A*29"
2026-03-16T19:06:09.790Z,NMEA0183,,"$IIHDG,67.3,,,2.5,W*05"
2026-03-16T19:06:09.790Z,NMEA0183,,"$VHW,67.3,T,69.8,M,5.0,N,9.3,K*5F"
2026-03-16T19:06:09.790Z,NMEA0183,,"$MTW,17.8,C*1D"
2026-03-16T19:06:09.791Z,NMEA0183,,"$WIMWV,181.0,R,9.9,N,A*2B"
2026-03-16T19:06:09.791Z,NMEA0183,,"$WIMWV,181.0,R,9.9,N,A*2B"
2026-03-16T19:06:10.795Z,NMEA0183,,"$GPRMC,180610.78,A,4004.4523,N,01500.8768,E,5.2,69.2,160326,2.5,W*73"
2026-03-16T19:06:10.796Z,NMEA0183,,"$GPGGA,180610.78,4004.4523,N,01500.8768,E,1,11,1.4,10.0,M,0.0,M,,*6C"
2026-03-16T19:06:10.796Z,NMEA0183,,"$GPGSA,A,3,13,24,31,12,16,2,11,32,17,15,14,,1.1,0.8,1.2*0F"
2026-03-16T19:06:10.796Z,NMEA0183,,"$GPGSV,3,1,11,13,40,148,45,24,9,88,33,31,2,57,28,12,27,71,32*47"
2026-03-16T19:06:10.797Z,NMEA0183,,"$GPGSV,3,2,11,16,79,58,21,2,78,339,47,11,34,155,26,32,30,155,20*7B"
2026-03-16T19:06:10.797Z,NMEA0183,,"$GPGSV,3,3,11,17,64,73,45,15,60,147,35,14,64,46,49*46"
2026-03-16T19:06:10.797Z,NMEA0183,,"$GPVTG,69.2,T,71.7,M,5.2,N,9.7,K,A*26"
2026-03-16T19:06:10.798Z,NMEA0183,,"$IIHDG,69.2,,,2.5,W*0A"
2026-03-16T19:06:10.798Z,NMEA0183,,"$VHW,69.2,T,71.7,M,5.2,N,9.7,K*50"
2026-03-16T19:06:10.798Z,NMEA0183,,"$MTW,17.8,C*1D"
2026-03-16T19:06:10.799Z,NMEA0183,,"$WIMWV,183.0,R,11.7,N,A*1E"
2026-03-16T19:06:10.799Z,NMEA0183,,"$WIMWV,183.0,R,11.7,N,A*1E"
2026-03-16T19:06:11.400Z,NMEA0183,,"$IIXDR,P,0.97088,B,Barometer,C,21.92,C,TempAir*79"
2026-03-16T19:06:11.790Z,NMEA0183,,"$GPRMC,180611.78,A,4004.4528,N,01500.8786,E,5.1,70.9,160326,2.5,W*79"
2026-03-16T19:06:11.791Z,NMEA0183,,"$GPGGA,180611.78,4004.4528,N,01500.8786,E,1,10,1.0,10.0,M,0.0,M,,*63"
